     3.04           OBSERVATION DATA    M: Mixed            RINEX VERSION / TYPE
RTKCONV-EX 2.5.0                        20251109 043934 UTC PGM / RUN BY / DATE 
format: u-blox UBX                                          COMMENT             
log: D:\navigation 4203\test1.ubx                           COMMENT             
                                                            MARKER NAME         
                                                            MARKER NUMBER       
                                                            MARKER TYPE         
                                                            OBSERVER / AGENCY   
                                                            REC # / TYPE / VERS 
                                                            ANT # / TYPE        
 -2418206.7135  5385761.4277  2405769.6762                  APPROX POSITION XYZ 
        0.0000        0.0000        0.0000                  ANTENNA: DELTA H/E/N
G    8 C1C L1C D1C S1C C2X L2X D2X S2X                      SYS / # / OBS TYPES 
R    8 C1C L1C D1C S1C C2C L2C D2C S2C                      SYS / # / OBS TYPES 
E    8 C1X L1X D1X S1X C7X L7X D7X S7X                      SYS / # / OBS TYPES 
J    8 C1C L1C D1C S1C C2X L2X D2X S2X                      SYS / # / OBS TYPES 
S    4 C1C L1C D1C S1C                                      SYS / # / OBS TYPES 
C    8 C2I L2I D2I S2I C7I L7I D7I S7I                      SYS / # / OBS TYPES 
  2025    10    27    02    09   14.0040000     GPS         TIME OF FIRST OBS   
  2025    10    27    02    13   21.0040000     GPS         TIME OF LAST OBS    
G L1C                                                       SYS / PHASE SHIFT   
G L2X  0.00000                                              SYS / PHASE SHIFT   
R L1C                                                       SYS / PHASE SHIFT   
R L2C                                                       SYS / PHASE SHIFT   
E L1X  0.00000                                              SYS / PHASE SHIFT   
E L7X  0.00000                                              SYS / PHASE SHIFT   
J L1C                                                       SYS / PHASE SHIFT   
J L2X  0.00000                                              SYS / PHASE SHIFT   
S L1C                                                       SYS / PHASE SHIFT   
C L2I                                                       SYS / PHASE SHIFT   
C L7I                                                       SYS / PHASE SHIFT   
  7 R07  5 R09 -2 R10 -7 R16 -1 R21  4 R22 -3 R23  3        GLONASS SLOT / FRQ #
 C1C    0.000 C1P    0.000 C2C    0.000 C2P    0.000        GLONASS COD/PHS/BIS 
                                                            END OF HEADER       
> 2025 10 27 02 09 14.0040000  0 25                     
S29  38240145.868   200953321.9752        -92.334          44.000  
J03  37322284.558   196129920.7021       -231.017          38.000    37322285.565   152828515.410        -180.116          38.000  
J07  37835525.593   198827031.346         -91.631          38.000    37835522.007   154930138.861         -71.417          39.000  
G25  23640897.373   124233742.6371       2613.373          37.000                                                                  
G23  21518828.614   113082209.4051        521.080          40.000    21518824.780    88116027.838         405.867          37.000  
G24  23278810.724                1      -3118.050          29.000                                                                  
C13  37978345.104   197763205.781         801.664          42.000    37978338.375   152923027.339         619.744          41.000  
C16  37849544.633   197092510.773          40.061          43.000    37849537.930   152404403.014          30.952          45.000  
C23  23475496.595   122243075.3151        685.757          47.000                                                                  
C27  26112586.079   135975086.389       -2297.552          43.000                                                                  
C38  37355487.482   194519831.6901        395.566          38.000                                                                  
C06  37446604.008   194994294.0271        235.294          42.000    37446591.115   150781901.9311        181.848          43.000  
R09  21164915.508   113019467.0371       1529.367          45.000    21164913.904    87904033.029        1189.767          41.000  
R21  23760488.575   127147169.9101      -3662.640          45.000    23760498.314    98892341.8191      -2849.241          33.000  
G12  24108821.427   126692737.5991       1309.338          41.000    24108899.140                        1019.471          35.000  
G18  23198570.112   121909296.828       -2812.044          45.000    23198568.253    94994233.097       -2191.377          42.000  
G10  23627070.027   124161092.165        2635.510          43.000    23627067.719    96748999.490        2053.834          36.000  
S28  38657037.177   203144102.640         -88.833          38.000  
S37  37835521.292   198827006.0802        -92.027          42.000  
C32  24983015.526   130093116.7231       1296.191          42.000                                                                  
C39  37310564.658   194285904.285        -117.943          45.000                                                                  
G28  24709823.275                        2830.795          27.000    24709851.078                        2205.410          30.000  
E29  25924698.390   136235208.613        -847.299          40.000                                                                  
E27  27752085.790   145838180.985         908.185          35.000                                                                  
C09                                                                  38609517.839   155464524.233         295.747          40.000  
> 2025 10 27 02 09 15.0040000  0 25                     
S29  38240163.290   200953413.1963        -91.644          42.000  
J03  37322328.433   196130151.462        -230.718          40.000    37322329.449   152828695.146        -179.752          39.000  
J07  37835542.977   198827123.071         -91.570          39.000    37835539.469   154930210.334         -71.538          40.000  
G25  23640399.892   124231128.745        2613.703          36.000                                                                  
G23  21518729.355   113081687.955         521.251          40.000    21518725.652    88115621.540         406.314          37.000  
G24  23279403.930   122334093.2641      -3117.639          35.000                                                                  
C13  37978191.114   197762403.818         801.979          42.000    37978184.395   152922407.182         620.104          43.000  
C16  37849536.686   197092470.226          40.625          43.000    37849530.200   152404371.656          31.128          45.000  
C23  23475364.956   122242389.383         685.697          46.000                                                                  
C27  26113027.103   135977383.377       -2297.047          43.000                                                                  
C38  37355411.364   194519435.432         396.341          38.000                                                                  
C06  37446558.870   194994058.297         235.494          42.000    37446545.857   150781719.628         182.371          43.000  
R09  21164629.103   113017937.543        1529.123          44.000    21164627.449    87902843.444        1189.306          39.000  
R21  23761172.849   127150832.027       -3662.091          45.000    23761182.324    98895190.083       -2848.448          34.000  
G12  24108572.056   126691427.802        1309.410          37.000    24108577.975    98720890.340        1020.536          36.000  
G18  23199105.111   121912108.750       -2812.143          44.000    23199103.515    94996424.212       -2191.621          40.000  
G10  23626568.407   124158456.177        2635.620          41.000    23626566.009    96746945.531        2053.609          37.000  
S28  38657054.046   203144190.921         -88.609          38.000  
S37  37835538.841   198827097.8042        -91.798          42.000  
C32  24982766.478   130091819.946        1296.570          41.000                                                                  
C39  37310587.223   194286021.654        -117.297          45.000                                                                  
G28  24709281.868                        2828.927          25.000    24709312.343   101180374.623        2205.956          31.000  
E29  25924857.816   136236055.477        -846.885          39.000                                                                  
E27  27751912.970   145837272.616         908.415          34.000                                                                  
C09                                                                  38609444.274   155464227.919         296.250          40.000  
> 2025 10 27 02 09 16.0040000  0 25                     
S29  38240180.923   200953505.862         -92.938          42.000  
J03  37322372.541   196130383.219        -232.160          40.000    37322373.575   152828875.735        -180.898          38.000  
J07  37835560.512   198827215.725         -93.029          39.000    37835557.084   154930282.535         -72.495          39.000  
G25  23639902.704   124228515.989        2612.698          36.000                                                                  
G23  21518630.375   113081167.924         519.479          40.000    21518626.593    88115216.275         404.876          34.000  
G24  23279997.369   122337212.400       -3119.966          35.000                                                                  
C13  37978037.230   197761602.747         800.708          43.000    37978030.582   152921787.743         619.419          42.000  
C16  37849529.265   197092430.748          39.083          43.000    37849522.599   152404341.126          30.325          44.000  
C23  23475233.476   122241704.851         683.898          46.000                                                                  
C27  26113468.596   135979681.261       -2298.087          43.000                                                                  
C38  37355335.345   194519040.143         394.676          38.000                                                                  
C06  37446513.673   194993823.590         234.409          42.000    37446500.813   150781538.163         181.167          42.000  
R09  21164343.039   113016409.768        1526.936          44.000    21164341.327    87901655.164        1187.672          36.000  
R21  23761857.317   127154495.212       -3663.604          44.000    23761866.795    98898039.190       -2849.395          32.000  
G12  24108322.977   126690119.413        1308.089          37.000    24108321.989    98719870.798        1019.657          36.000  
G18  23199640.384   121914921.931       -2813.564          44.000    23199638.913    94998616.287       -2192.344          38.000  
G10  23626067.047   124155821.251        2634.505          41.000    23626064.543    96744892.344        2052.659          35.000  
S28  38657071.095   203144280.178         -89.312          39.000  
S37  37835556.458   198827190.4522        -92.959          42.000  
C32  24982517.673   130090524.083        1295.532          40.000                                                                  
C39  37310609.963   194286140.088        -118.672          45.000                                                                  
G28  24708740.924                        2818.298          22.000    24708776.081   101178169.498        2205.081          31.000  
E29  25925019.919   136236903.254        -848.212          39.000                                                                  
E27  27751741.082   145836365.456         906.791          33.000                                                                  
C09                                                                  38609370.798   155463932.365         295.286          39.000  
> 2025 10 27 02 09 17.0040000  0 25                     
S29  38240198.562   200953598.652         -92.822          42.000  
J03  37322416.626   196130615.170        -232.159          40.000    37322417.699   152829056.480        -180.882          39.000  
J07  37835578.009   198827308.498         -92.698          39.000    37835574.727   154930354.831         -72.595          39.000  
G25  23639405.557   124225903.530        2612.839          36.000                                                                  
G23  21518531.573   113080648.489         518.862          40.000    21518527.648    88114811.553         404.008          35.000  
G24  23280590.863   122340331.878       -3119.783          34.000                                                                  
C13  37977883.505   197760801.822         801.231          43.000    37977876.825   152921168.435         619.369          42.000  
C16  37849521.744   197092391.519          39.255          43.000    37849515.060   152404310.797          30.280          45.000  
C23  23475102.237   122241020.955         683.570          46.000                                                                  
C27  26113910.003   135981979.281       -2298.120          43.000                                                                  
C38  37355259.355   194518645.093         394.780          37.000                                                                  
C06  37446468.744   194993589.168         234.553          43.000    37446455.756   150781356.893         181.075          44.000  
R09  21164057.077   113014882.883        1526.431          43.000    21164055.353    87900467.565        1187.431          37.000  
R21  23762541.960   127158158.666       -3663.510          45.000    23762551.162    98900888.507       -2848.808          33.000  
G12  24108074.013   126688811.564        1307.968          37.000    24108072.406    98718851.712        1019.056          36.000  
G18  23200175.753   121917735.599       -2813.912          44.000    23200174.426    95000808.745       -2192.667          39.000  
G10  23625565.717   124153186.587        2634.376          42.000    23625563.122    96742839.324        2052.882          36.000  
S28  38657088.082   203144369.589         -89.223          38.000  
S37  37835574.103   198827283.228         -92.648          42.000  
C32  24982268.904   130089228.315        1295.844          40.000                                                                  
C39  37310632.761   194286258.782        -118.711          45.000                                                                  
G28  24708199.169                        2831.981          18.000    24708238.237   101175964.769        2204.648          31.000  
E29  25925181.357   136237751.094        -847.935          39.000                                                                  
E27  27751568.670   145835458.695         906.794          33.000                                                                  
C09                                                                  38609297.469   155463637.030         295.438          40.000  
> 2025 10 27 02 09 18.0040000  0 25                     
S29  38240216.388   200953692.729         -94.281          42.000  
J03  37322461.118   196130848.519        -233.685          40.000    37322462.093   152829238.302        -182.111          39.000  
J07  37835595.980   198827402.599         -94.448          38.000    37835592.593   154930428.142         -73.757          39.000  
G25  23638908.616   124223292.636        2610.452          36.000                                                                  
G23  21518433.102   113080130.783         517.328          40.000    21518429.097    88114408.134         402.895          35.000  
G24  23281184.778   122343452.902       -3121.357          34.000                                                                  
C13  37977729.841   197760002.229         799.364          43.000    37977723.270   152920550.128         617.897          43.000  
C16  37849514.341   197092353.752          37.289          43.000    37849507.827   152404281.588          28.953          45.000  
C23  23474971.282   122240338.871         681.550          45.000                                                                  
C27  26114351.472   135984278.572       -2299.826          43.000                                                                  
C38  37355183.711   194518251.375         393.326          37.000                                                                  
C06  37446423.919   194993356.153         232.767          43.000    37446410.997   150781176.719         179.773          44.000  
R09  21163771.686   113013358.088        1524.047          43.000    21163769.738    87899281.624        1185.201          37.000  
R21  23763226.844   127161823.581       -3665.243          45.000    23763235.913    98903739.026       -2851.215          33.000  
G12  24107825.331   126687505.479        1305.401          37.000    24107823.563    98717833.958        1017.552          36.000  
G18  23200711.264   121920550.900       -2815.736          43.000    23200710.280    95003002.509       -2194.422          38.000  
G10  23625064.675   124150553.307        2632.841          42.000    23625062.009    96740787.435        2051.384          36.000  
S28  38657105.374   203144460.260         -91.270          38.000  
S37  37835591.967   198827377.303         -94.391          42.000  
C32  24982020.373   130087933.803        1294.116          40.000                                                                  
C39  37310655.841   194286378.891        -120.642          45.000                                                                  
E29  25925342.984   136238600.207        -849.258          40.000                                                                  
E27  27751396.501   145834553.589         904.738          33.000                                                                  
C09                                                                  38609224.379   155463342.785         294.060          40.000  
G28                                                                  24707700.203   101173761.257        2202.939          31.000  
> 2025 10 27 02 09 19.0040000  0 25                     
S29  38240234.365   200953787.196         -93.793          42.000  
J03  37322505.667   196131082.358        -233.456          40.000    37322506.608   152829420.498        -181.525          39.000  
J07  37835613.989   198827497.018         -93.684          38.000    37835610.559   154930501.748         -73.441          39.000  
G25  23638411.819   124220682.334        2610.722          36.000                                                                  
G23  21518334.753   113079613.993         517.221          40.000    21518330.867    88114005.425         402.936          36.000  
G24  23281778.846   122346574.582       -3121.077          35.000                                                                  
C13  37977576.353   197759203.049         799.678          43.000    37977569.774   152919932.137         618.530          43.000  
C16  37849507.434   197092316.501          37.818          43.000    37849500.629   152404252.787          29.103          45.000  
C23  23474840.580   122239657.686         681.621          46.000                                                                  
C27  26114793.043   135986578.263       -2299.077          43.000                                                                  
C38  37355108.319   194517858.173         393.766          37.000                                                                  
C06  37446379.207   194993123.698         233.112          42.000    37446366.383   150780996.960         180.071          44.000  
R09  21163486.362   113011834.433        1523.683          43.000    21163484.384    87898096.550        1185.417          37.000  
R21  23763911.812   127165489.027       -3665.170          45.000    23763920.748    98906589.909       -2850.347          33.000  
G12  24107576.818   126686200.189        1305.904          37.000    24107575.152    98716816.847        1017.737          36.000  
G18  23201247.053   121923366.975       -2815.664          43.000    23201246.251    95005196.822       -2194.280          39.000  
G10  23624563.757   124147920.559        2633.428          42.000    23624560.941    96738735.933        2051.984          36.000  
S28  38657122.621   203144551.237         -90.668          39.000  
S37  37835609.857   198827471.774         -93.913          42.000  
C32  24981771.969   130086639.636        1294.714          40.000                                                                  
C39  37310679.038   194286499.528        -120.172          45.000                                                                  
E29  25925504.604   136239449.691        -848.935          39.000                                                                  
E27  27751224.158   145833649.197         904.703          34.000                                                                  
C09                                                                  38609151.413   155463048.960         294.016          40.000  
G28                                                                  24707162.386   101171558.327        2202.551          31.000  
> 2025 10 27 02 09 20.0040000  0 25                     
S29  38240252.170   200953880.848         -93.695          42.000  
J03  37322550.187   196131315.468        -233.262          40.000    37322550.979   152829602.156        -181.539          39.000  
J07  37835631.856   198827590.684         -93.467          39.000    37835628.411   154930574.707         -72.909          40.000  
G25  23637914.971   124218071.443        2611.263          36.000    23637919.841    96793329.974        2034.319          30.000  
G23  21518236.363   113079096.848         516.658          40.000    21518232.463    88113602.446         402.875          36.000  
G24  23282372.662   122349695.684       -3121.770          34.000                                                                  
C13  37977422.719   197758403.067         800.020          43.000    37977416.151   152919313.566         618.500          43.000  
C16  37849499.867   197092278.594          37.832          43.000    37849493.288   152404223.468          29.149          45.000  
C23  23474709.683   122238976.206         681.101          46.000                                                                  
C27  26115234.439   135988877.135       -2298.972          43.000                                                                  
C38  37355032.635   194517464.259         393.773          38.000                                                                  
C06  37446334.536   194992890.575         233.058          43.000    37446321.628   150780816.683         180.182          44.000  
R09  21163200.981   113010310.723        1523.315          44.000    21163199.031    87896911.475        1184.718          37.000  
R21  23764596.668   127169153.719       -3664.920          45.000    23764605.500    98909440.251       -2850.500          33.000  
G12  24107328.291   126684894.509        1305.481          37.000    24107327.009    98715799.447        1016.840          36.000  
G18  23201782.688   121926182.564       -2815.849          43.000    23201782.097    95007390.765       -2193.897          39.000  
G10  23624062.750   124145287.130        2633.271          42.000    23624059.783    96736683.908        2052.060          36.000  
S28  38657139.753   203144641.422         -90.614          39.000  
S37  37835627.720   198827565.420         -93.648          42.000  
C32  24981523.555   130085344.655        1294.720          40.000                                                                  
C39  37310701.798   194286619.489        -120.027          45.000                                                                  
E29  25925665.987   136240298.337        -848.462          39.000                                                                  
E27  27751052.214   145832744.288         904.937          34.000                                                                  
C09                                                                  38609078.322   155462754.590         294.370          40.000  
G28                                                                  24706624.460   101169355.002        2202.859          31.000  
> 2025 10 27 02 09 21.0040000  0 25                     
S29  38240269.962   200953974.699         -93.561          43.000  
J03  37322594.577   196131548.908        -233.728          41.000    37322595.358   152829784.033        -181.618          40.000  
J07  37835649.791   198827684.549         -93.388          39.000    37835646.346   154930647.843         -73.044          41.000  
G25  23637418.193   124215460.932        2610.701          35.000    23637419.531    96791295.830        2033.713          31.000  
G23  21518138.052   113078580.379         516.187          40.000    21518134.223    88113200.026         401.936          37.000  
G24  23282966.647   122352817.247       -3122.117          35.000    23282957.456                       -2433.080          27.000  
C13  37977269.032   197757603.370         799.655          43.000    37977262.629   152918695.173         618.341          43.000  
C16  37849492.565   197092241.038          37.494          43.000    37849486.033   152404194.413          29.104          45.000  
C23  23474578.934   122238295.435         680.479          45.000                                                                  
C27  26115675.993   135991176.213       -2298.939          44.000                                                                  
C38  37354957.106   194517070.650         393.305          38.000                                                                  
C06  37446289.882   194992657.808         232.637          43.000    37446276.964   150780636.675         180.023          44.000  
R09  21162916.008   113008788.047        1522.356          43.000    21162913.860    87895727.153        1184.081          38.000  
R21  23765281.642   127172818.764       -3665.055          45.000    23765290.407    98912290.792       -2850.182          33.000  
G12  24107079.934   126683589.494        1304.779          37.000    24107078.515    98714782.547        1016.566          36.000  
G18  23202318.558   121928998.715       -2816.108          43.000    23202318.020    95009585.179       -2194.599          40.000  
G10  23623561.756   124142654.027        2633.074          42.000    23623558.786    96734632.166        2051.845          36.000  
S28  38657156.944   203144731.787         -90.193          38.000  
G28  24706080.656                        2832.492          29.000    24706086.391   101167152.048        2202.489          32.000  
S37  37835645.577   198827659.294         -93.797          42.000  
C32  24981274.840   130084049.850        1294.629          40.000                                                                  
C39  37310724.900   194286739.798        -120.398          45.000                                                                  
E29  25925827.586   136241147.139        -848.532          39.000                                                                  
E27  27750880.456   145831839.859         904.427          34.000                                                                  
C09                                                                  38609005.297   155462460.508         293.983          40.000  
> 2025 10 27 02 09 22.0040000  0 25                     
S29  38240287.774   200954068.570         -93.683          43.000  
J03  37322639.065   196131782.397        -233.520          41.000    37322639.719   152829965.990        -182.083          42.000  
J07  37835667.664   198827778.452         -94.097          39.000    37835664.270   154930720.981         -73.145          43.000  
G25  23636921.419   124212850.670        2609.935          35.000    23636920.774    96789261.836        2033.933          31.000  
G23  21518039.918   113078064.386         515.758          40.000    21518036.029    88112797.921         401.604          36.000  
G24  23283560.626   122355939.101       -3121.426          34.000    23283554.960    95342264.3561      -2433.115          31.000  
C13  37977115.293   197756803.673         799.518          43.000    37977109.095   152918076.814         618.229          42.000  
C16  37849485.462   197092203.605          37.366          43.000    37849478.868   152404165.492          28.823          45.000  
C23  23474448.321   122237615.198         679.668          46.000                                                                  
C27  26116117.561   135993475.301       -2299.032          44.000                                                                  
C38  37354881.554   194516677.075         393.482          38.000                                                                  
C06  37446245.301   194992425.175         232.474          43.000    37446232.431   150780456.805         179.857          44.000  
R09  21162631.033   113007266.088        1521.583          42.000    21162628.854    87894543.417        1183.487          38.000  
R21  23765966.536   127176483.954       -3665.238          45.000    23765975.199    98915141.532       -2851.425          34.000  
G12  24106831.580   126682284.896        1304.473          36.000    24106830.092    98713765.949        1016.019          38.000  
G18  23202854.454   121931815.232       -2816.789          43.000    23202854.023    95011779.833       -2194.637          40.000  
G10  23623060.804   124140021.043        2632.942          42.000    23623057.602    96732580.487        2051.791          38.000  
S28  38657174.122   203144822.209         -90.526          39.000  
G28  24705546.424   129828522.5283       2826.415          30.000    24705548.598   101164949.351        2202.218          33.000  
S37  37835663.474   198827753.173         -93.820          43.000  
C32  24981026.347   130082755.009        1294.818          40.000                                                                  
C39  37310748.065   194286860.243        -120.585          45.000                                                                  
E29  25925988.954   136241995.943        -848.936          39.000                                                                  
E27  27750708.867   145830935.837         903.804          35.000                                                                  
C09                                                                  38608932.332   155462166.518         293.823          40.000  
> 2025 10 27 02 09 23.0040000  0 25                     
S29  38240305.907   200954163.503         -94.391          42.000  
J03  37322683.820   196132017.088        -234.469          41.000    37322684.222   152830148.842        -182.396          41.000  
J07  37835685.770   198827873.388         -94.453          39.000    37835682.410   154930794.954         -73.724          42.000  
G25  23636424.797   124210241.686        2609.506          35.000    23636421.873    96787228.874        2032.951          31.000  
G23  21517942.031   113077549.957         514.606          40.000    21517938.043    88112397.073         400.504          36.000  
G24  23284154.909   122359059.7953      -3124.371          34.000    23284153.851    95344697.974       -2433.200          30.000  
C13  37976961.920   197756005.069         798.865          43.000    37976955.749   152917459.273         617.757          42.000  
C16  37849478.374   197092167.419          36.365          43.000    37849471.907   152404137.496          28.316          45.000  
C23  23474317.914   122236936.515         679.045          46.000                                                                  
C27  26116559.251   135995775.465       -2299.742          43.000                                                                  
C38  37354806.129   194516284.694         392.631          38.000                                                                  
C06  37446200.955   194992193.746         231.816          42.000    37446188.008   150780277.854         179.205          44.000  
R09  21162346.445   113005746.011        1520.191          42.000    21162344.161    87893361.139        1182.311          38.000  
R21  23766651.682   127180150.393       -3665.895          45.000    23766660.141    98917993.173       -2851.274          34.000  
G12  24106583.515   126680981.759        1303.447          36.000    24106582.055    98712750.542        1015.709          37.000  
G18  23203390.534   121934633.138       -2817.588          42.000    23203390.277    95013975.600       -2195.248          39.000  
G10  23622560.059   124137389.248        2632.212          42.000    23622556.659    96730529.750        2050.850          37.000  
S28  38657191.550   203144913.779         -91.656          39.000  
G28  24705004.186   129825697.1132       2826.295          31.000    24705010.816   101162747.755        2201.192          33.000  
S37  37835681.587   198827848.097         -94.353          43.000  
C32  24980777.770   130081461.217        1294.226          40.000                                                                  
C39  37310771.594   194286981.877        -121.284          45.000                                                                  
E29  25926150.674   136242845.768        -849.452          39.000                                                                  
E27  27750537.218   145830033.191         902.490          35.000                                                                  
C09                                                                  38608859.494   155461873.466         293.216          40.000  
> 2025 10 27 02 09 24.0040000  0 25                     
S29  38240323.930   200954258.263         -94.446          42.000  
J03  37322728.601   196132251.667        -234.168          41.000    37322728.854   152830331.647        -182.816          41.000  
J07  37835703.802   198827968.130         -94.806          39.000    37835700.518   154930868.789         -73.816          42.000  
G25  23635928.308   124207632.735        2608.883          35.000    23635925.234    96785195.930        2033.588          30.000  
G23  21517844.032   113077035.813         513.786          40.000    21517840.122    88111996.396         400.833          36.000  
G24  23284749.144   122362183.0422      -3124.117          34.000    23284749.120    95347131.660       -2433.923          30.000  
C13  37976808.522   197755206.293         798.763          43.000    37976802.376   152916841.611         617.573          42.000  
C16  37849471.542   197092131.178          36.144          43.000    37849464.958   152404109.477          28.107          45.000  
C23  23474187.571   122236258.186         678.322          46.000                                                                  
C27  26117000.958   135998075.444       -2300.145          43.000                                                                  
C38  37354730.852   194515892.228         392.124          38.000                                                                  
C06  37446156.616   194991962.294         231.201          42.000    37446143.670   150780098.868         178.981          44.000  
R09  21162061.965   113004226.574        1518.842          42.000    21162059.656    87892179.338        1181.414          38.000  
R21  23767336.852   127183816.781       -3666.363          45.000    23767345.118    98920844.796       -2851.534          34.000  
G12  24106335.547   126679678.914        1302.403          36.000    24106334.064    98711735.326        1015.046          37.000  
G18  23203926.627   121937451.262       -2818.378          42.000    23203926.741    95016171.543       -2195.740          39.000  
G10  23622059.313   124134757.434        2631.871          42.000    23622055.843    96728478.990        2050.690          36.000  
S28  38657208.956   203145005.170         -91.938          39.000  
G28  24704462.241   129822871.8552       2824.898          31.000    24704472.794   101160546.249        2200.896          32.000  
S37  37835699.692   198827942.860         -94.697          43.000  
C32  24980529.440   130080167.251        1293.677          40.000                                                                  
C39  37310794.814   194287103.478        -121.632          45.000                                                                  
E29  25926312.133   136243695.355        -849.194          39.000                                                                  
E27  27750366.214   145829130.620         902.924          34.000                                                                  
C09                                                                  38608786.707   155461580.383         292.955          40.000  
> 2025 10 27 02 09 25.0040000  0 25                     
S29  38240341.939   200954352.969         -95.020          42.000  
J03  37322773.336   196132486.334        -235.205          42.000    37322773.637   152830514.487        -183.134          41.000  
J07  37835721.866   198828062.821         -94.387          39.000    37835718.610   154930942.590         -74.121          42.000  
G25  23635431.828   124205024.020        2608.184          35.000    23635427.789    96783163.157        2032.813          30.000  
G23  21517746.294   113076522.094         513.104          40.000    21517742.402    88111596.103         400.039          37.000  
G24  23285343.601   122365305.9051      -3124.009          33.000    23285343.790    95349565.619       -2435.288          30.000  
C13  37976655.190   197754407.509         798.366          43.000    37976648.954   152916223.930         617.366          42.000  
C16  37849464.577   197092095.030          36.044          43.000    37849458.005   152404081.533          27.680          45.000  
C23  23474057.368   122235580.328         677.440          46.000                                                                  
C27  26117442.558   136000375.366       -2300.289          43.000                                                                  
C38  37354655.434   194515499.786         392.342          38.000                                                                  
C06  37446112.485   194991730.931         230.900          42.000    37446099.219   150779919.966         178.627          44.000  
R09  21161777.553   113002707.804        1518.230          42.000    21161775.233    87890998.070        1180.790          38.000  
R21  23768022.100   127187483.246       -3666.861          45.000    23768030.170    98923696.473       -2852.344          34.000  
G12  24106087.661   126678376.431        1302.621          36.000    24106086.100    98710720.397        1014.753          37.000  
G18  23204462.851   121940269.658       -2818.870          41.000    23204463.157    95018367.713       -2196.567          39.000  
G10  23621558.582   124132125.671        2631.376          42.000    23621555.019    96726428.235        2051.105          36.000  
S28  38657226.347   203145096.497         -91.844          39.000  
G28  24703925.078   129820046.8592       2824.633          32.000    24703935.104   101158344.927        2200.808          31.000  
S37  37835717.770   198828037.569         -95.096          43.000  
C32  24980280.841   130078873.169        1293.933          40.000                                                                  
C39  37310818.135   194287225.157        -122.150          45.000                                                                  
E29  25926473.874   136244544.931        -849.788          39.000                                                                  
E27  27750194.631   145828228.381         901.625          35.000                                                                  
C09                                                                  38608713.929   155461287.367         292.528          40.000  
> 2025 10 27 02 09 26.0040000  0 25                     
S29  38240360.120   200954448.155         -95.489          42.000  
J03  37322818.167   196132721.519        -235.872          41.000    37322818.399   152830697.763        -183.805          41.000  
J07  37835740.038   198828158.016         -95.510          39.000    37835736.755   154931016.742         -74.533          42.000  
G25  23634935.471   124202415.906        2607.520          35.000    23634932.159    96781130.943        2030.027          30.000  
G23  21517648.768   113076009.304         512.049          40.000    21517644.749    88111196.553         398.769          36.000  
G24  23285938.101   122368430.066       -3124.158          32.000    23285939.871    95351999.897       -2434.952          29.000  
C13  37976501.833   197753609.182         797.641          43.000    37976495.696   152915606.604         617.033          42.000  
C16  37849457.656   197092059.498          34.774          43.000    37849451.277   152404054.047          27.039          45.000  
C23  23473927.522   122234903.440         675.962          46.000                                                                  
C27  26117884.278   136002675.758       -2301.011          43.000                                                                  
C38  37354580.272   194515107.914         391.489          38.000                                                                  
C06  37446068.284   194991500.145         230.378          43.000    37446054.962   150779741.521         178.061          44.000  
R09  21161493.428   113001190.273        1516.881          42.000    21161491.034    87889817.789        1179.744          38.000  
R21  23768707.400   127191150.251       -3667.429          45.000    23768715.293    98926548.579       -2852.607          35.000  
G12  24105839.869   126677074.878        1300.419          36.000    24105838.323    98709706.165        1013.366          37.000  
G18  23204999.244   121943088.896       -2820.161          41.000    23204999.674    95020564.513       -2197.658          39.000  
G10  23621057.976   124129494.505        2630.628          42.000    23621054.343    96724377.970        2050.143          36.000  
S28  38657243.783   203145188.214         -92.185          39.000  
G28  24703388.634   129817222.1451       2823.364          32.000    24703397.430   101156144.254        2200.107          31.000  
S37  37835735.936   198828132.739         -95.656          43.000  
C32  24980032.416   130077579.537        1293.103          40.000                                                                  
C39  37310841.720   194287347.424        -122.761          45.000                                                                  
E29  25926635.622   136245394.878        -850.410          39.000                                                                  
E27  27750022.984   145827326.890         900.689          35.000                                                                  
C09                                                                  38608641.279   155460994.808         291.950          40.000  
> 2025 10 27 02 09 27.0040000  0 26                     
S29  38240378.393   200954543.853         -95.782          42.000  
J03  37322862.967   196132957.316        -236.005          41.000    37322863.307   152830881.492        -183.856          41.000  
J07  37835758.251   198828253.710         -95.655          39.000    37835755.083   154931091.306         -74.735          41.000  
G25  23634439.193   124199808.602        2607.107          34.000    23634435.787    96779099.148        2032.744          31.000  
G23  21517551.424   113075497.545         511.258          40.000    21517547.376    88110797.776         398.605          36.000  
G24  23286532.748   122371555.074       -3126.587          32.000    23286535.280    95354434.919       -2435.475          28.000  
C13  37976348.559   197752811.419         797.644          42.000    37976342.508   152914989.739         616.732          41.000  
C16  37849451.246   197092024.609          34.658          43.000    37849444.686   152404027.080          26.802          45.000  
C23  23473797.824   122234227.583         675.403          45.000                                                                  
C27  26118326.240   136004976.664       -2301.185          43.000                                                                  
C38  37354505.157   194514716.641         391.182          38.000                                                                  
C06  37446024.140   194991270.075         229.777          43.000    37446010.784   150779563.602         177.775          44.000  
R09  21161209.372   112999674.073        1515.596          42.000    21161207.112    87888638.506        1178.973          38.000  
R21  23769392.776   127194817.883       -3667.647          45.000    23769400.390    98929401.151       -2852.759          34.000  
R22  22944105.157   122477190.4641       -684.305          31.000                                                                  
G12  24105592.302   126675774.263        1300.118          39.000    24105590.786    98708692.689        1013.072          37.000  
G18  23205535.783   121945908.991       -2820.517          41.000    23205536.479    95022762.001       -2198.163          39.000  
G10  23620557.453   124126863.980        2630.518          42.000    23620553.793    96722328.242        2049.489          36.000  
S28  38657261.352   203145280.460         -92.325          38.000  
G28  24702851.683   129814398.763        2823.194          33.000    24702859.824   101153944.205        2199.534          31.000  
S37  37835754.207   198828228.439         -95.868          43.000  
C32  24979784.064   130076286.416        1292.767          40.000                                                                  
C39  37310865.348   194287470.352        -123.160          45.000                                                                  
E29  25926797.414   136246245.346        -850.441          39.000                                                                  
E27  27749849.539   145826426.270         900.221          36.000                                                                  
C09                                                                  38608568.729   155460702.771         291.789          40.000  
> 2025 10 27 02 09 28.0040000  0 27                     
S29  38240396.605   200954639.986         -96.167          42.000  
J03  37322907.975   196133193.674        -236.517          40.000    37322908.267   152831065.658        -184.069          41.000  
J07  37835776.644   198828349.851         -96.204          39.000    37835773.435   154931166.218         -74.979          41.000  
G25  23633943.160   124197201.932        2606.991          34.000    23633939.785    96777068.034        2030.534          31.000  
G23  21517454.233   113074986.662         510.689          40.000    21517450.166    88110399.688         397.673          36.000  
G24  23287127.476   122374680.596       -3125.650          32.000    23287130.145    95356870.436       -2435.986          27.000  
C13  37976195.542   197752014.130         797.392          42.000    37976189.418   152914373.218         616.576          41.000  
C16  37849444.498   197091990.340          34.044          43.000    37849438.061   152404000.554          26.516          45.000  
C23  23473668.299   122233552.663         674.808          46.000                                                                  
C27  26118768.145   136007278.000       -2301.281          43.000                                                                  
C38  37354430.181   194514325.908         390.502          38.000                                                                  
C06  37445980.116   194991040.583         229.197          43.000    37445966.733   150779386.130         177.489          44.000  
R09  21160925.609   112998159.054        1514.543          42.000    21160923.336    87887460.186        1177.962          38.000  
R21  23770078.157   127198486.120       -3668.361          45.000    23770085.757    98932254.236       -2853.461          34.000  
R10  23523092.221                        4042.047          27.000                                                                  
R22  22944233.590   122477875.577        -685.921          31.000                                                                  
G12  24105344.884   126674474.501        1299.268          36.000    24105343.338    98707679.873        1012.430          38.000  
G18  23206072.471   121948729.873       -2821.136          40.000    23206073.405    95024960.043       -2198.111          39.000  
G10  23620057.033   124124234.019        2630.048          43.000    23620053.161    96720278.898        2049.286          36.000  
S28  38657278.893   203145373.122         -92.969          38.000  
G28  24702314.717   129811576.106        2822.815          34.000    24702322.400   101151744.701        2199.565          31.000  
S37  37835772.505   198828324.561         -96.183          43.000  
C32  24979535.720   130074993.688        1292.523          41.000                                                                  
C39  37310889.178   194287593.850        -123.658          45.000                                                                  
E29  25926959.487   136247096.213        -850.939          39.000                                                                  
E27  27749676.469   145825526.389         899.565          36.000                                                                  
C09                                                                  38608496.296   155460411.165         291.267          40.000  
> 2025 10 27 02 09 29.0040000  0 27                     
S29  38240414.946   200954736.310         -96.899          42.000  
J03  37322953.021   196133430.298        -237.326          40.000    37322953.327   152831250.037        -184.667          40.000  
J07  37835794.897   198828446.149         -96.969          40.000    37835791.759   154931241.263         -75.425          41.000  
G25  23633447.252   124194595.714        2605.481          35.000    23633443.793    96775037.170        2030.650          31.000  
G23  21517357.151   113074476.471         509.521          39.000    21517353.134    88110002.131         397.054          35.000  
G24  23287722.265   122377806.661       -3126.540          33.000    23287725.249    95359306.266       -2436.052          26.000  
C13  37976042.547   197751217.059         796.783          42.000    37976036.294   152913756.885         616.089          42.000  
C16  37849437.900   197091956.380          33.274          43.000    37849431.533   152403974.293          25.832          45.000  
C23  23473538.880   122232878.450         673.426          45.000                                                                  
C27  26119210.106   136009579.535       -2302.257          44.000                                                                  
C38  37354355.092   194513935.478         389.488          38.000                                                                  
C06  37445936.156   194990811.400         228.433          43.000    37445922.767   150779208.919         176.780          44.000  
R09  21160642.071   112996645.018        1513.110          42.000    21160639.731    87886282.589        1177.056          38.000  
R21  23770763.784   127202154.700       -3669.362          45.000    23770771.244    98935107.555       -2854.092          35.000  
R10  23522331.156                        4038.362          25.000                                                                  
R22  22944362.177   122478561.564        -687.065          31.000    22944381.132                        -536.154          26.000  
G12  24105097.658   126673175.324        1298.451          37.000    24105096.021    98706667.534        1011.820          38.000  
G18  23206609.256   121951551.279       -2822.339          40.000    23206610.358    95027158.551       -2198.972          39.000  
G10  23619556.674   124121604.367        2629.245          43.000    23619552.745    96718229.821        2048.824          36.000  
S28  38657296.539   203145465.976         -92.991          38.000  
G28  24701777.998   129808753.997        2821.174          33.000    24701785.363   101149545.706        2197.705          31.000  
S37  37835790.753   198828420.872         -96.848          43.000  
C32  24979287.550   130073701.119        1291.956          41.000                                                                  
C39  37310912.892   194287717.674        -124.627          45.000                                                                  
E29  25927121.267   136247947.226        -851.477          39.000                                                                  
E27  27749503.604   145824627.009         898.965          36.000    27749501.625   111735743.810         688.791          43.000  
C09                                                                  38608423.927   155460119.794         291.235          40.000  
> 2025 10 27 02 09 30.0040000  0 27                     
S29  38240433.503   200954832.901         -97.046          43.000  
J03  37322998.209   196133667.300        -237.402          40.000    37322998.347   152831434.711        -185.047          40.000  
J07  37835813.383   198828542.753         -96.951          40.000    37835810.127   154931316.540         -75.605          41.000  
G25  23632951.293   124191989.923        2604.802          35.000    23632948.036    96773006.642        2031.254          31.000  
G23  21517260.270   113073967.026         508.804          40.000    21517256.148    88109605.155         396.573          35.000  
G24  23288317.245   122380933.213       -3126.523          33.000    23288320.500                       -2436.562          26.000  
C13  37975889.482   197750420.306         796.351          43.000    37975883.311   152913140.771         615.726          42.000  
C16  37849431.797   197091922.830          33.132          43.000    37849425.165   152403948.356          25.685          45.000  
C23  23473409.514   122232205.036         672.653          46.000                                                                  
C27  26119652.221   136011881.332       -2302.233          44.000                                                                  
C38  37354280.097   194513545.347         389.660          38.000                                                                  
C06  37445892.190   194990582.624         228.224          43.000    37445878.831   150779032.012         176.730          44.000  
R09  21160358.827   112995132.040        1512.256          42.000    21160356.393    87885105.826        1176.204          38.000  
R21  23771449.495   127205823.683       -3669.564          45.000    23771456.679    98937961.174       -2853.516          34.000  
R10  23521570.139                        4040.510          26.000                                                                  
R22  22944491.162   122479248.593        -687.613          31.000    22944508.187                        -534.169          26.000  
G12  24104850.503   126671876.865        1298.052          36.000    24104848.911    98705655.760        1011.267          38.000  
G18  23207146.173   121954373.311       -2822.550          40.000    23207147.474    95029357.558       -2199.588          39.000  
G10  23619056.446   124118975.133        2628.738          43.000    23619052.489    96716181.073        2048.201          36.000  
S28  38657314.252   203145559.083         -93.379          38.000  
G28  24701241.178   129805932.429        2820.586          33.000    24701248.151   101147347.089        2198.604          31.000  
S37  37835809.146   198828517.466         -96.851          43.000  
C32  24979039.262   130072408.798        1292.010          41.000                                                                  
C39  37310936.777   194287841.895        -124.660          45.000                                                                  
E29  25927282.840   136248798.481        -851.424          38.000                                                                  
E27  27749331.334   145823728.241         898.135          37.000    27749330.328   111735055.143         688.166          43.000  
C09                                                                  38608351.637   155459828.756         290.870          40.000  
> 2025 10 27 02 09 31.0040000  0 27                     
S29  38240451.965   200954929.763         -97.461          43.000  
J03  37323043.429   196133904.658        -237.877          39.000    37323043.713   152831619.650        -185.362          40.000  
J07  37835831.818   198828639.604         -97.366          39.000    37835828.667   154931392.001         -75.822          41.000  
G25  23632455.465   124189384.615        2604.339          36.000    23632452.495    96770976.614        2029.703          31.000  
G23  21517163.500   113073458.308         507.915          40.000    21517159.401    88109208.745         395.998          36.000  
G24  23288912.160   122384060.322       -3127.968          33.000    23288915.879    95364217.3011      -2437.148          27.000  
C13  37975736.562   197749623.822         795.760          43.000    37975730.361   152912524.872         615.346          42.000  
C16  37849425.195   197091889.699          32.494          43.000    37849418.788   152403922.730          25.129          45.000  
C23  23473280.301   122231532.391         671.776          46.000                                                                  
C27  26120094.384   136014183.388       -2302.548          44.000                                                                  
C38  37354205.143   194513155.591         389.274          39.000                                                                  
C06  37445848.209   194990354.280         227.789          43.000    37445834.968   150778855.451         176.046          44.000  
R09  21160075.722   112993620.108        1510.730          42.000    21160073.171    87883929.882        1175.272          38.000  
R21  23772135.103   127209493.081       -3670.117          45.000    23772142.306    98940815.156       -2854.897          34.000  
R10  23520809.566                        4040.935          26.000                                                                  
R22  22944619.913   122479936.629        -689.553          31.000    22944636.502                        -535.903          26.000  
G12  24104603.469   126670579.113        1296.871          37.000    24104601.861    98704644.532        1010.572          37.000  
G18  23207683.184   121957195.970       -2823.325          39.000    23207684.577    95031557.023       -2199.969          39.000  
G10  23618556.293   124116346.271        2628.194          43.000    23618552.250    96714132.603        2048.170          36.000  
S28  38657331.957   203145652.479         -93.895          39.000  
G28  24700704.502   129803111.463        2820.880          34.000    24700710.960   101145148.976        2196.730          31.000  
S37  37835827.595   198828614.327         -97.431          43.000  
C32  24978791.092   130071116.715        1291.425          40.000                                                                  
C39  37310960.795   194287966.529        -125.440          45.000                                                                  
E29  25927444.879   136249649.980        -851.988          38.000                                                                  
E27  27749159.446   145822830.032         897.184          37.000    27749159.314   111734366.914         687.350          43.000  
C09                                                                  38608279.426   155459538.039         289.808          40.000  
> 2025 10 27 02 09 32.0040000  0 27                     
S29  38240470.552   200955027.511         -97.400          43.000  
J03  37323088.797   196134143.016        -238.223          40.000    37323089.077   152831805.390        -185.730          40.000  
J07  37835850.485   198828737.369         -97.925          40.000    37835847.394   154931468.182         -76.035          41.000  
G25  23631959.929   124186780.431        2604.304          36.000    23631956.981    96768947.407        2028.713          31.000  
G23  21517066.970   113072950.967         507.366          40.000    21517062.827    88108813.417         395.286          36.000  
G24  23289507.565   122387188.539       -3128.090          32.000    23289512.002    95366654.953       -2438.064          27.000  
C13  37975583.714   197748828.225         795.847          43.000    37975577.588   152911909.669         615.630          42.000  
C16  37849419.148   197091857.596          32.160          43.000    37849412.598   152403897.905          25.022          45.000  
C23  23473151.407   122230861.148         671.175          46.000                                                                  
C27  26120536.656   136016486.351       -2302.906          43.000                                                                  
C38  37354130.541   194512766.839         388.886          39.000                                                                  
C06  37445804.572   194990126.971         227.454          43.000    37445791.359   150778679.676         175.833          44.000  
R09  21159792.852   112992109.866        1510.018          42.000    21159790.355    87882755.243        1174.452          38.000  
R21  23772820.999   127213163.523       -3670.143          45.000    23772828.106    98943669.914       -2854.423          35.000  
R10  23520050.152                        4038.979          26.000                                                                  
R22  22944749.283   122480626.330        -690.586          31.000    22944761.631                        -536.757          26.000  
G12  24104356.709   126669282.664        1296.614          37.000    24104354.997    98703634.306        1010.134          37.000  
G18  23208220.496   121960019.880       -2823.846          39.000    23208221.883    95033757.454       -2200.257          38.000  
G10  23618056.268   124113718.435        2628.059          43.000    23618052.223    96712084.950        2047.995          37.000  
S28  38657349.825   203145746.763         -93.238          39.000  
G28  24700168.303   129800291.733        2819.703          33.000    24700174.217   101142951.742        2197.130          31.000  
S37  37835846.207   198828712.077         -97.287          43.000  
C32  24978543.171   130069825.497        1291.528          41.000                                                                  
C39  37310984.925   194288092.180        -125.437          45.000                                                                  
E29  25927606.828   136250502.350        -852.102          38.000                                                                  
E27  27748987.999   145821933.032         897.211          37.000    27748988.775   111733679.608         687.408          43.000  
C09                                                                  38608207.423   155459248.109         289.865          39.000  
> 2025 10 27 02 09 33.0040000  0 27                     
S29  38240488.984   200955124.751         -97.778          43.000  
J03  37323134.030   196134380.925        -238.250          39.000    37323134.329   152831990.767        -185.925          40.000  
J07  37835869.036   198828834.576         -97.658          40.000    37835865.847   154931543.948         -76.122          41.000  
G25  23631464.235   124184175.902        2604.290          36.000    23631461.467    96766917.916        2028.902          32.000  
G23  21516970.382   113072443.588         506.612          40.000    21516966.340    88108418.075         394.713          36.000  
G24  23290102.764   122390316.450       -3127.847          32.000    23290107.786    95369092.224       -2436.781          27.000  
C13  37975430.727   197748032.155         795.613          43.000    37975424.788   152911294.100         615.176          42.000  
C16  37849413.057   197091825.125          31.780          43.000    37849406.374   152403872.783          24.983          45.000  
C23  23473022.526   122230189.907         670.479          46.000                                                                  
C27  26120978.796   136018788.776       -2302.825          43.000                                                                  
C38  37354055.714   194512377.623         388.930          39.000                                                                  
C06  37445760.777   194989899.256         227.259          43.000    37445747.588   150778503.605         175.537          44.000  
R09  21159509.999   112990599.861        1509.197          42.000    21159507.581    87881580.799        1173.619          38.000  
R21  23773506.879   127216833.544       -3670.527          45.000    23773513.807    98946524.365       -2855.136          34.000  
R10  23519292.591                        4039.661          25.000                                                                  
R22  22944878.599   122481316.254        -690.524          30.000    22944888.558                        -537.128          26.000  
G12  24104109.886   126667986.142        1295.654          37.000    24104108.318    98702624.012        1009.943          37.000  
G18  23208757.725   121962843.632       -2824.728          39.000    23208759.214    95035957.770       -2200.635          39.000  
G10  23617556.154   124111090.188        2627.841          43.000    23617552.090    96710036.969        2047.589          36.000  
S28  38657367.679   203145840.608         -94.160          39.000  
G28  24699631.909   129797471.723        2820.374          33.000    24699637.451   101140754.396        2196.446          31.000  
S37  37835864.693   198828809.307         -97.578          43.000  
C32  24978295.114   130068533.751        1291.156          41.000                                                                  
C39  37311008.893   194288217.444        -125.830          45.000                                                                  
E29  25927768.660   136251354.151        -852.321          38.000                                                                  
E27  27748816.516   145821035.847         896.710          38.000    27748818.535   111732992.168         686.854          43.000  
C09                                                                  38608135.238   155458957.857         290.248          39.000  
> 2025 10 27 02 09 34.0040000  0 28                     
S29  38240507.701   200955222.487         -97.302          43.000  
J03  37323179.402   196134619.444        -237.849          39.000    37323179.738   152832176.624        -185.684          40.000  
J07  37835887.637   198828932.329         -97.237          40.000    37835884.443   154931620.096         -75.570          41.000  
G25  23630968.690   124181572.184        2604.197          35.000    23630966.017    96764889.005        2029.140          31.000  
G23  21516874.047   113071937.172         506.720          40.000    21516869.996    88108023.443         394.941          36.000  
G24  23290698.174   122393445.246       -3128.694          32.000    23290702.478    95371530.261       -2437.279          27.000  
C13  37975278.027   197747236.598         795.769          43.000    37975272.079   152910678.916         615.243          42.000  
C16  37849406.825   197091793.283          32.086          43.000    37849400.254   152403848.173          24.916          45.000  
C23  23472893.984   122229519.678         670.265          46.000                                                                  
C27  26121421.095   136021091.727       -2302.717          44.000                                                                  
C38  37353981.154   194511989.041         388.938          39.000                                                                  
C06  37445717.111   194989672.223         227.190          43.000    37445703.982   150778328.031         175.869          44.000  
R09  21159227.463   112989091.187        1508.574          42.000    21159225.002    87880407.358        1173.468          38.000  
R21  23774192.755   127220504.162       -3670.259          45.000    23774199.608    98949379.290       -2855.141          34.000  
R10  23518535.806                        4039.805          25.000                                                                  
R22  22945008.141   122482007.401        -691.442          30.000    22945015.901                        -537.549          26.000  
G12  24103863.255   126666690.592        1295.756          37.000    24103861.700    98701614.497        1009.727          37.000  
G18  23209295.100   121965668.184       -2824.252          39.000    23209296.657    95038158.772       -2201.272          38.000  
G10  23617055.920   124108462.600        2628.116          43.000    23617052.103    96707989.494        2047.743          36.000  
S28  38657385.646   203145934.964         -93.817          39.000  
G28  24699095.450   129794652.609        2819.783          33.000    24699100.860   101138557.662        2196.508          31.000  
S37  37835883.361   198828907.060         -97.161          43.000  
C32  24978047.127   130067242.478        1291.467          40.000                                                                  
C39  37311033.045   194288343.339        -125.445          45.000                                                                  
E29  25927930.425   136252206.433        -851.733          38.000                                                                  
E26  26737880.670   140508510.705       -2830.266          40.000                                                                  
E27  27748645.593   145820139.501         896.563          37.000    27748647.603   111732305.318         687.231          43.000  
C09                                                                  38608063.262   155458668.132         289.916          39.000  
> 2025 10 27 02 09 35.0040000  0 29                     
S29  38240526.252   200955320.166         -97.864          42.000  
J03  37323224.859   196134857.986        -238.298          39.000    37323225.141   152832362.477        -185.819          40.000  
J07  37835906.198   198829030.002         -97.732          40.000    37835902.930   154931696.205         -76.226          41.000  
G25  23630473.196   124178968.578        2603.666          36.000    23630470.721    96762860.259        2028.448          31.000  
G23  21516777.758   113071431.176         505.624          40.000    21516773.658    88107629.189         393.692          35.000  
G24  23291293.631   122396574.181       -3129.398          32.000    23291297.089    95373968.356       -2438.767          27.000  
C13  37975125.342   197746441.008         795.447          43.000    37975119.255   152910063.705         615.288          42.000  
C16  37849400.608   197091761.522          31.504          43.000    37849394.050   152403823.611          24.501          45.000  
C23  23472765.366   122228849.888         669.391          46.000                                                                  
C27  26121863.446   136023394.582       -2302.856          44.000                                                                  
C38  37353906.607   194511600.468         388.181          39.000                                                                  
C06  37445673.541   194989445.256         226.650          43.000    37445660.396   150778152.510         175.607          44.000  
R09  21158945.173   112987583.144        1507.601          42.000    21158942.584    87879234.464        1172.488          38.000  
R21  23774878.750   127224174.865       -3671.143          46.000    23774885.556    98952234.243       -2854.952          35.000  
R10  23517777.802   125362988.7303       4039.085          26.000                                                                  
R16  22933858.801   122508556.8172      -2347.131          28.000                                                                  
R22  22945137.652   122482699.111        -692.629          29.000    22945145.417                        -538.436          26.000  
G12  24103616.684   126665395.335        1295.113          36.000    24103615.227    98700605.245        1008.692          37.000  
G18  23209832.403   121968493.068       -2825.076          39.000    23209834.149    95040359.948       -2201.295          38.000  
G10  23616555.910   124105835.060        2627.393          43.000    23616552.168    96705942.057        2047.403          36.000  
S28  38657403.556   203146029.188         -94.384          39.000  
G28  24698559.230   129791833.743        2818.637          33.000    24698564.317   101136361.086        2196.431          31.000  
S37  37835901.934   198829004.712         -97.530          43.000  
C32  24977799.202   130065951.096        1291.150          40.000                                                                  
C39  37311057.231   194288469.320        -126.239          45.000                                                                  
E29  25928092.540   136253058.605        -852.421          39.000                                                                  
E26  26738418.455   140511341.489       -2830.985          40.000                                                                  
E27  27748475.031   145819243.370         895.476          36.000    27748477.015   111731618.691         686.382          43.000  
C09                                                                  38607991.319   155458378.466         289.516          39.000  
> 2025 10 27 02 09 36.0040000  0 29                     
S29  38240545.051   200955419.355        -100.238          42.000  
J03  37323270.575   196135098.179        -241.633          41.000    37323270.922   152832549.638        -188.039          42.000  
J07  37835925.037   198829129.209        -100.487          40.000    37835921.862   154931773.501         -78.039          41.000  
G25  23629978.163   124176366.634        2601.068          36.000    23629975.555    96760832.732        2027.272          31.000  
G23  21516681.921   113070927.181         502.463          40.000    21516677.799    88107236.432         391.917          35.000  
G24  23291889.283   122399704.867       -3132.433          32.000    23291892.068    95376407.842       -2440.111          27.000  
C13  37974972.890   197745646.968         792.927          43.000    37974966.819   152909449.715         613.232          42.000  
C16  37849394.969   197091731.429          28.687          43.000    37849388.315   152403800.341          22.600          45.000  
C23  23472637.149   122228182.123         666.531          46.000                                                                  
C27  26122306.076   136025698.963       -2305.305          44.000                                                                  
C38  37353832.257   194511213.479         385.608          39.000                                                                  
C06  37445630.192   194989219.941         223.934          43.000    37445617.185   150777978.292         173.248          44.000  
R09  21158663.098   112986077.451        1504.296          42.000    21158660.585    87878063.352        1170.085          38.000  
R21  23775564.990   127227847.277       -3673.660          46.000    23775571.744    98955090.578       -2857.460          35.000  
R10  23517020.110   125358950.9372       4036.340          27.000                                                                  
R16  22934300.391   122510905.4362      -2350.590          26.000                                                                  
R22  22945267.478   122483393.217        -695.876          29.000    22945275.447                        -539.944          25.000  
G12  24103370.450   126664102.094        1292.059          36.000    24103369.096    98699597.507        1007.104          37.000  
G18  23210370.127   121971319.806       -2827.956          37.000    23210371.941    95042562.592       -2203.005          38.000  
G10  23616056.278   124103209.155        2624.932          42.000    23616052.505    96703895.917        2045.470          36.000  
S28  38657421.716   203146124.854         -96.405          39.000  
G28  24698023.467   129789016.698        2816.044          33.000    24698028.044   101134165.996        2194.159          31.000  
S37  37835920.846   198829103.929        -100.390          43.000  
C32  24977551.565   130064661.192        1288.837          40.000                                                                  
C39  37311081.757   194288596.924        -128.668          45.000                                                                  
E29  25928254.838   136253912.301        -854.870          39.000                                                                  
E26  26738958.738   140514173.962       -2833.497          40.000                                                                  
E27  27748304.883   145818349.122         892.841          36.000    27748306.817   111730933.472         684.261          43.000  
C09                                                                  38607919.671   155458090.056         287.178          39.000  
> 2025 10 27 02 09 37.0040000  0 29                     
S29  38240563.772   200955518.210         -98.456          43.000  
J03  37323316.248   196135338.099        -239.235          41.000    37323316.549   152832736.572        -186.204          42.000  
J07  37835943.858   198829228.032         -97.901          39.000    37835940.676   154931850.527         -76.568          41.000  
G25  23629482.992   124173764.621        2602.646          35.000    23629480.475    96758805.239        2027.900          30.000  
G23  21516586.123   113070423.314         504.136          40.000    21516581.964    88106843.800         392.770          36.000  
G24  23292484.985   122402835.356       -3128.870          32.000    23292486.034    95378847.273       -2439.443          30.000  
C13  37974820.361   197744852.610         794.871          43.000    37974814.266   152908835.483         614.465          42.000  
C16  37849389.015   197091701.120          30.907          43.000    37849382.455   152403776.920          23.879          45.000  
C23  23472509.044   122227514.534         668.024          46.000                                                                  
C27  26122748.643   136028002.977       -2303.365          44.000                                                                  
C38  37353757.880   194510826.224         388.031          39.000                                                                  
C06  37445586.939   194988994.421         226.176          43.000    37445573.830   150777803.908         174.840          44.000  
R09  21158381.193   112984572.180        1505.504          42.000    21158378.701    87876892.588        1170.800          38.000  
R21  23776251.228   127231519.459       -3671.489          45.000    23776257.767    98957946.707       -2855.446          35.000  
R10  23516262.169   125354913.059        4038.741          27.000                                                                  
R16  22934751.081   122513254.3502      -2348.712          26.000                                                                  
R22  22945397.204   122484087.662        -694.251          29.000    22945405.596                        -538.871          25.000  
G12  24103124.234   126662808.880        1293.913          36.000    24103123.095    98698589.844        1008.127          37.000  
G18  23210907.872   121974146.574       -2826.217          38.000    23210909.852    95044765.275       -2202.219          38.000  
G10  23615556.540   124100583.033        2626.963          42.000    23615552.848    96701849.609        2046.404          36.000  
S28  38657439.714   203146220.199         -94.613          38.000  
G28  24697487.636   129786199.592        2817.429          33.000    24697491.808   101131970.877        2196.094          31.000  
S37  37835939.628   198829202.771         -98.119          43.000  
C32  24977303.715   130063370.927        1290.930          40.000                                                                  
C39  37311106.209   194288724.331        -126.799          45.000                                                                  
E29  25928416.937   136254765.569        -852.441          38.000    25928417.298   104402992.029        -653.233          43.000  
E26  26739497.453   140517006.252       -2831.762          40.000                                                                  
E27  27748134.517   145817454.854         894.441          36.000    27748136.548   111730248.222         685.423          43.000  
C09                                                                  38607847.984   155457801.469         289.196          39.000  
> 2025 10 27 02 09 38.0040000  0 29                     
S29  38240582.724   200955617.003         -98.700          43.000  
J03  37323361.928   196135578.059        -240.071          41.000    37323362.266   152832923.559        -187.007          42.000  
J07  37835962.600   198829326.823         -98.421          39.000    37835959.503   154931927.511         -76.908          41.000  
G25  23628987.861   124171162.769        2601.410          35.000    23628985.595    96756777.813        2027.615          30.000  
G23  21516490.320   113069919.846         503.459          40.000    21516486.208    88106451.462         392.556          37.000  
G24  23293080.626   122405966.261       -3130.964          33.000    23293081.073    95381286.784       -2439.489          29.000  
C13  37974667.627   197744058.224         794.524          43.000    37974661.717   152908221.191         614.446          43.000  
C16  37849383.213   197091670.898          30.305          43.000    37849376.704   152403753.538          23.585          45.000  
C23  23472380.881   122226847.398         667.056          46.000                                                                  
C27  26123191.158   136030306.957       -2303.692          44.000                                                                  
C38  37353683.496   194510439.031         387.511          39.000                                                                  
C06  37445543.639   194988768.991         225.323          43.000    37445530.523   150777629.592         174.359          44.000  
R09  21158099.332   112983067.616        1504.554          41.000    21158096.953    87875722.379        1169.958          38.000  
R21  23776937.417   127235191.687       -3672.010          46.000    23776943.799    98960802.845       -2855.794          35.000  
R10  23515505.604   125350875.296        4037.950          27.000                                                                  
R16  22935198.079   122515603.9032      -2349.385          25.000                                                                  
R22  22945526.900   122484782.770        -695.577          28.000    22945536.214                        -540.772          25.000  
G12  24102878.196   126661516.065        1292.994          36.000    24102876.946    98697582.463        1007.212          37.000  
G18  23211445.662   121976973.603       -2827.352          39.000    23211447.713    95046968.165       -2202.733          37.000  
G10  23615056.770   124097956.993        2626.030          42.000    23615053.007    96699803.318        2046.176          36.000  
S28  38657457.831   203146315.514         -95.286          39.000  
G28  24696951.541   129783382.762        2817.021          33.000    24696955.790   101129775.933        2195.151          30.000  
S37  37835958.493   198829301.558         -98.609          43.000  
C32  24977055.938   130062080.564        1290.790          40.000                                                                  
C39  37311130.575   194288851.806        -127.310          45.000                                                                  
E29  25928579.321   136255618.783        -853.098          39.000    25928580.190   104403645.782        -653.529          43.000  
E26  26740035.991   140519838.657       -2832.331          39.000                                                                  
E27  27747964.252   145816560.771         894.247          36.000    27747966.310   111729563.160         685.246          43.000  
C09                                                                  38607776.328   155457512.951         288.565          39.000  
> 2025 10 27 02 09 39.0040000  0 29                     
S29  38240601.412   200955715.509         -98.340          42.000  
J03  37323407.609   196135817.789        -239.840          40.000    37323407.901   152833110.375        -187.226          42.000  
J07  37835981.300   198829425.380         -99.416          37.000    37835978.201   154932004.257         -76.816          41.000  
G25  23628492.748   124168560.914        2600.933          35.000    23628490.408    96754750.372        2027.346          29.000  
G23  21516394.521   113069416.594         502.812          40.000    21516390.490    88106059.347         391.885          36.000  
G24  23293676.411   122409096.975       -3131.193          33.000    23293679.345    95383726.367       -2440.411          30.000  
C13  37974514.982   197743263.592         794.446          43.000    37974509.134   152907606.736         614.363          42.000  
C16  37849377.577   197091640.578          29.644          43.000    37849370.818   152403730.089          23.232          45.000  
C23  23472252.771   122226180.540         666.537          46.000                                                                  
C27  26123633.602   136032610.664       -2303.849          44.000                                                                  
C38  37353609.066   194510051.699         386.862          36.000                                                                  
C06  37445500.355   194988543.418         225.438          43.000    37445487.246   150777455.174         174.352          44.000  
R09  21157817.592   112981563.578        1503.377          41.000    21157815.259    87874552.571        1168.969          37.000  
R21  23777623.562   127238863.721       -3672.210          46.000    23777629.979    98963658.863       -2856.050          35.000  
R10  23514749.951   125346837.467        4037.986          29.000                                                                  
R16  22935643.281   122517954.0212      -2351.785          25.000                                                                  
R22  22945656.983   122485478.315        -695.301          27.000    22945666.499                        -542.079          24.000  
G12  24102632.200   126660223.402        1293.925          33.000    24102631.011    98696575.220        1006.921          37.000  
G18  23211983.451   121979800.676       -2827.068          39.000    23211985.676    95049171.110       -2203.447          37.000  
G10  23614557.018   124095330.797        2625.900          42.000    23614553.229    96697756.933        2046.066          36.000  
S28  38657475.895   203146410.569         -95.605          39.000  
G28  24696415.526   129780565.992        2816.581          34.000    24696419.666   101127581.009        2195.192          31.000  
S37  37835977.283   198829400.076         -98.614          42.000  
C32  24976808.180   130060789.947        1290.497          40.000                                                                  
C39  37311155.088   194288979.151        -127.837          45.000                                                                  
E29  25928741.530   136256471.665        -853.061          39.000    25928741.802   104404299.304        -653.713          43.000  
E26  26740574.897   140522670.966       -2832.865          40.000                                                                  
E27  27747794.065   145815666.761         894.053          36.000    27747796.207   111728878.169         684.792          43.000  
C09                                                                  38607704.644   155457224.345         288.302          39.000  
> 2025 10 27 02 09 40.0040000  0 28                     
S29  38240620.038   200955814.052         -99.194          42.000  
J03  37323453.280   196136057.700        -240.609          39.000    37323453.602   152833297.308        -187.756          40.000  
J07  37836000.062   198829523.891         -98.732          39.000    37835996.906   154932081.070         -77.416          41.000  
G25  23627997.658   124165959.255        2601.440          35.000    23627995.346    96752723.136        2026.819          31.000  
G23  21516298.905   113068913.854         501.990          39.000    21516294.882    88105667.632         391.482          35.000  
G24  23294272.371   122412228.033       -3130.876          32.000    23294271.227    95386166.132       -2440.793          30.000  
C13  37974362.456   197742469.024         794.035          41.000    37974356.545   152906992.343         613.795          42.000  
C16  37849371.576   197091610.373          29.613          43.000    37849364.998   152403706.749          22.812          46.000  
C23  23472124.886   122225514.197         665.552          46.000                                                                  
C27  26124076.065   136034914.370       -2304.235          44.000                                                                  
C38  37353534.667   194509664.409         386.769          36.000                                                                  
C06  37445456.999   194988318.033         224.709          43.000    37445443.949   150777280.912         173.754          45.000  
R09  21157535.901   112980060.251        1502.469          43.000    21157533.754    87873383.314        1168.338          38.000  
R21  23778309.858   127242535.877       -3672.502          46.000    23778316.139    98966514.978       -2856.467          34.000  
R10  23513990.942   125342799.844        4036.692          30.000                                                                  
R22  22945787.448   122486174.665        -696.965          27.000                                                                  
G12  24102386.016   126658931.251        1291.188          40.000    24102385.089    98695568.215        1006.611          38.000  
G18  23212521.353   121982628.162       -2828.187          39.000    23212523.609    95051374.380       -2203.979          39.000  
G10  23614057.327   124092704.699        2625.707          43.000    23614053.514    96695710.649        2046.166          35.000  
S28  38657494.016   203146505.699         -95.433          38.000  
G28  24695879.610   129777749.526        2815.611          35.000    24695883.818   101125386.376        2193.926          30.000  
S37  37835996.084   198829498.617         -99.109          42.000  
C32  24976560.285   130059499.255        1290.314          42.000                                                                  
C39  37311179.599   194289106.637        -128.013          46.000                                                                  
E29  25928904.216   136257324.553        -853.502          40.000    25928904.728   104404952.808        -653.709          44.000  
E26  26741113.826   140525503.440       -2832.833          39.000                                                                  
E27  27747623.523   145814773.109         892.875          37.000    27747625.687   111728193.390         684.257          44.000  
C09                                                                  38607632.918   155456935.811         287.695          39.000  
> 2025 10 27 02 09 41.0040000  0 28                     
S29  38240638.808   200955912.938         -99.060          43.000  
J03  37323498.982   196136298.038        -240.384          39.000    37323499.364   152833484.535        -186.984          40.000  
J07  37836018.917   198829622.783         -99.446          39.000    37836015.698   154932158.096         -77.168          41.000  
G25  23627502.788   124163358.146        2600.906          37.000    23627500.271    96750696.339        2025.671          32.000  
G23  21516203.386   113068411.924         501.382          37.000    21516199.438    88105276.547         390.749          35.000  
G24  23294868.203   122415359.739       -3132.106          32.000    23294868.424    95388606.406       -2440.226          32.000  
C13  37974209.922   197741674.810         794.049          41.000    37974204.111   152906378.196         614.114          41.000  
C16  37849365.772   197091580.671          29.725          43.000    37849359.352   152403683.761          22.682          46.000  
C23  23471996.953   122224848.695         664.979          47.000                                                                  
C27  26124518.473   136037218.435       -2304.322          44.000                                                                  
C38  37353460.347   194509277.613         386.570          36.000                                                                  
C06  37445413.696   194988093.115         224.947          43.000    37445400.792   150777106.970         173.866          45.000  
R09  21157254.470   112978558.108        1501.672          43.000    21157252.374    87872214.986        1167.752          39.000  
R21  23778996.425   127246208.567       -3672.928          46.000    23779002.316    98969371.531       -2857.015          35.000  
R10  23513237.315   125338762.799        4037.264          30.000                                                                  
R22  22945917.847   122486872.228        -697.982          26.000                                                                  
G12  24102140.299   126657639.797        1290.908          41.000    24102139.291    98694561.913        1006.179          39.000  
G18  23213059.252   121985456.319       -2828.365          39.000    23213061.760    95053578.186       -2204.416          38.000  
G10  23613557.669   124090079.130        2625.607          43.000    23613553.878    96693664.772        2045.383          35.000  
S28  38657512.142   203146601.124         -95.857          39.000  
G28  24695343.717   129774933.707        2815.293          35.000    24695348.025   101123192.223        2194.136          31.000  
S37  37836014.934   198829597.480         -98.806          43.000  
C32  24976312.396   130058208.953        1290.149          41.000                                                                  
C39  37311204.170   194289234.602        -128.168          46.000                                                                  
E29  25929066.636   136258177.777        -853.084          40.000    25929067.138   104405606.574        -653.656          43.000  
E26  26741653.061   140528336.414       -2833.272          39.000                                                                  
E27  27747453.071   145813880.072         892.836          37.000    27747455.392   111727509.139         684.071          44.000  
C09                                                                  38607561.370   155456647.695         288.224          39.000  
> 2025 10 27 02 09 42.0040000  0 28                     
S29  38240657.676   200956012.103         -99.341          43.000  
J03  37323544.816   196136538.785        -241.019          39.000    37323545.114   152833672.149        -187.618          40.000  
J07  37836037.832   198829721.957         -99.711          39.000    37836034.452   154932235.413         -77.310          39.000  
G25  23627007.817   124160757.642        2600.060          36.000    23627004.940    96748669.937        2026.031          30.000  
G23  21516108.025   113067910.775         500.656          40.000    21516104.031    88104886.016         390.630          37.000  
G24  23295464.189   122418492.406       -3137.424          25.000    23295463.393    95391047.235       -2440.439          31.000  
C13  37974057.461   197740880.880         793.822          40.000    37974051.629   152905764.300         613.856          40.000  
C16  37849360.416   197091551.475          29.034          43.000    37849353.705   152403661.174          22.554          45.000  
C23  23471869.214   122224184.001         664.438          46.000                                                                  
C27  26124961.100   136039522.826       -2304.529          43.000                                                                  
C38  37353386.139   194508891.083         386.944          37.000                                                                  
C06  37445370.544   194987868.644         224.782          43.000    37445357.722   150776933.407         173.590          44.000  
R09  21156973.230   112977057.068        1500.951          42.000    21156971.136    87871047.480        1167.128          39.000  
R21  23779682.928   127249881.748       -3673.245          46.000    23779688.525    98972228.396       -2856.810          38.000  
R10  23512481.282   125334726.208        4036.434          29.000                                                                  
R22  22946048.424   122487570.754        -698.395          26.000                                                                  
G12  24101894.656   126656349.165        1290.802          40.000    24101893.548    98693556.197        1005.807          39.000  
G18  23213597.311   121988285.198       -2829.189          39.000    23213600.036    95055782.418       -2204.279          38.000  
G10  23613058.029   124087454.013        2625.184          45.000    23613054.343    96691619.150        2045.625          36.000  
S28  38657530.431   203146696.890         -96.004          38.000  
G28  24694807.885   129772118.519        2815.589          34.000    24694812.345   101120998.639        2193.431          32.000  
S37  37836033.844   198829696.662         -99.239          43.000  
C32  24976064.724   130056918.934        1289.911          44.000                                                                  
C39  37311228.823   194289363.027        -128.372          45.000                                                                  
E29  25929228.958   136259031.281        -853.436          39.000    25929229.165   104406260.524        -654.154          40.000  
E26  26742192.518   140531169.904       -2833.549          39.000                                                                  
E27  27747283.217   145812987.717         892.003          37.000    27747285.670   111726825.421         683.616          46.000  
C09                                                                  38607489.856   155456359.917         287.863          38.000  
> 2025 10 27 02 09 43.0040000  0 28                     
S29  38240676.729   200956112.121        -101.489          42.000  
J03  37323590.904   196136780.541        -243.198          31.000    37323591.176   152833860.387        -189.723          35.000  
J07  37836056.914   198829822.034        -101.582          32.000    37836053.412   154932313.462         -78.657          33.000  
G25  23626513.093   124158158.345        2597.863          34.000    23626510.139    96746644.339        2024.496          31.000  
G23  21516012.956   113067410.944         498.135          40.000    21516008.928    88104496.524         388.249          42.000  
G24  23296055.217                1      -3135.753          30.000    23296060.114                       -2442.193          22.000  
C13  37973905.100   197740087.937         791.501          44.000    37973899.354   152905151.089         611.906          44.000  
C16  37849355.019   197091523.138          26.692          42.000    37849348.283   152403639.259          20.607          42.000  
C23  23471741.727   122223520.699         661.683          48.000                                                                  
C27  26125403.905   136041828.022       -2306.703          43.000                                                                  
C38  37353312.268   194508505.601         384.177          42.000                                                                  
C06  37445327.650   194987645.194         222.012          41.000    37445314.852   150776760.590         171.184          44.000  
R09  21156692.318   112975557.583        1497.574          44.000    21156690.311    87869881.226        1164.967          44.000  
R21  23780369.662   127253555.868       -3675.627          47.000    23780374.968    98975086.038       -2858.489          39.000  
R10  23511725.402   125330690.812        4034.231          37.000                                                                  
R22  22946179.490   122488270.750        -701.802          27.000                                                                  
G12  24101649.112   126655059.729        1287.746          41.000    24101648.263    98692551.497        1003.753          39.000  
G18  23214135.592   121991115.093       -2831.516          35.000    23214138.657    95057987.652       -2206.180          36.000  
G10  23612558.661   124084829.813        2622.955          42.000    23612555.026    96689574.436        2044.016          35.000  
S28  38657548.766   203146793.384         -97.269          40.000  
G28  24694272.371   129769304.567        2812.442          35.000    24694276.903   101118805.850        2192.279          31.000  
S37  37836052.871   198829796.748        -101.197          36.000  
C32  24975817.159   130055629.681        1287.793          40.000                                                                  
C39  37311253.699   194289492.430        -131.077          44.000                                                                  
E29  25929391.849   136259885.544        -855.757          42.000    25929391.870   104406915.103        -655.727          44.000  
E26  26742732.369   140534004.303       -2836.243          35.000                                                                  
E27  27747113.281   145812096.521         889.375          39.000    27747116.244   111726142.589         681.632          45.000  
C09                                                                  38607418.560   155456072.917         285.750          38.000  
> 2025 10 27 02 09 44.0040000  0 28                     
S29  38240695.642   200956211.722         -98.987          43.000  
J03  37323637.018   196137022.012        -241.000          27.000    37323637.278   152834048.556        -188.680          33.000  
J07  37836075.791   198829921.657         -99.375          33.000    37836072.393   154932391.079         -77.210          33.000  
G23  21515917.923   113066911.181         499.810          43.000    21515913.807    88104107.054         389.810          43.000  
G24  23296652.168   122424732.5763      -3132.929          37.000    23296654.879    95395906.7211      -2440.335          30.000  
C13  37973752.735   197739294.488         794.080          42.000    37973747.054   152904537.542         614.125          43.000  
C16  37849349.271   197091494.618          29.296          42.000    37849342.780   152403617.177          22.458          45.000  
C23  23471614.305   122222857.416         663.536          47.000                                                                  
C27  26125846.380   136044132.754       -2303.977          42.000                                                                  
C38  37353238.175   194508119.758         386.310          42.000                                                                  
C06  37445284.781   194987421.410         224.032          41.000    37445271.823   150776587.592         172.934          43.000  
R09  21156411.472   112974058.392        1499.625          41.000    21156409.554    87868715.226        1166.183          42.000  
R21  23781056.265   127257229.619       -3673.356          46.000    23781061.311    98977943.375       -2856.568          36.000  
R10  23510970.172   125326655.066        4036.298          38.000                                                                  
R22  22946310.585   122488971.187        -699.621          28.000                                                                  
G12  24101403.586   126653770.214        1289.956          41.000    24101402.696    98691546.703        1005.098          39.000  
G18  23214673.667   121993944.993       -2829.035          36.000    23214677.312    95060192.753       -2204.871          32.000  
G10  23612059.252   124082205.284        2625.224          45.000    23612055.494    96687529.277        2045.643          33.000  
S28  38657567.068   203146889.579         -95.742          40.000  
G28  24693736.852   129766490.401        2814.624          36.000    24693741.492   101116613.088        2192.788          31.000  
S37  37836071.786   198829896.376         -98.956          37.000  
C32  24975569.353   130054339.938        1290.411          42.000                                                                  
C39  37311278.404   194289621.471        -128.627          44.000                                                                  
E29  25929554.295   136260739.355        -853.456          41.000    25929554.615   104407569.345        -653.959          46.000  
E26  26743271.874   140536838.562       -2833.613          35.000                                                                  
E27  27746943.045   145811205.156         891.859          37.000    27746946.363   111725459.609         683.184          44.000  
C09                                                                  38607347.043   155455785.593         287.650          38.000  
G25                                                                  23626015.285    96744618.693        2025.870          29.000  
> 2025 10 27 02 09 45.0040000  0 28                     
S29  38240714.585   200956311.055         -99.182          35.000  
J03  37323683.025   196137263.642        -241.616          32.000    37323683.126   152834236.267        -188.113          26.000  
J07  37836094.747   198830021.232         -99.493          26.000    37836090.999                         -77.154          27.000  
G23  21515822.939   113066411.778         499.136          41.000    21515818.867    88103717.871         389.345          37.000  
G24  23297249.125   122427870.0372      -3133.355          33.000    23297248.612    95398348.316       -2441.146          21.000  
C13  37973600.365   197738500.990         793.750          40.000    37973594.623   152903923.954         614.016          37.000  
C16  37849343.943   197091466.086          28.764          37.000    37849337.333   152403595.032          22.769          30.000  
C23  23471487.101   122222194.725         662.631          38.000                                                                  
C27  26126288.778   136046437.369       -2303.460          29.000                                                                  
C38  37353164.050   194507733.889         386.080          40.000                                                                  
C06  37445241.799   194987197.615         223.700          33.000    37445228.827   150776414.471         173.575          31.000  
R09  21156130.861   112972560.142        1497.982          33.000    21156128.966    87867549.936        1164.883          35.000  
R21  23781742.865   127260903.301       -3673.549          40.000    23781747.703    98980800.583       -2857.229          29.000  
R10  23510214.311   125322619.549        4035.446          29.000                                                                  
R22  22946442.052   122489671.996        -701.133          31.000                                                                  
G12  24101158.278   126652481.307        1288.822          33.000    24101157.322    98690542.349        1004.493          35.000  
G18  23215212.419   121996775.107       -2830.948          28.000    23215216.014    95062398.166       -2205.643          28.000  
G10  23611559.778   124079580.860        2624.740          42.000    23611555.994    96685484.213        2044.596          35.000  
S28  38657585.277   203146985.594         -96.056          36.000  
G28  24693201.386   129763676.343        2813.231          24.000    24693206.001   101114420.325        2193.146          30.000  
S37  37836090.771   198829995.953         -99.992          29.000  
C32  24975321.813   130053050.180        1289.868          39.000                                                                  
C39  37311303.213   194289750.551        -129.271          37.000                                                                  
E29  25929716.555   136261593.098        -853.492          41.000    25929716.962   104408223.458        -653.671          41.000  
E26  26743812.130   140539672.772       -2834.579          36.000                                                                  
E27  27746773.798   145810314.186         890.629          25.000    27746776.869   111724776.938         683.134          38.000  
C09                                                                  38607275.515   155455498.400         287.500          27.000  
G25                                                                  23625520.991    96742593.201        2025.667          31.000  
> 2025 10 27 02 09 46.0040000  0 28                     
S29  38240733.135   200956408.654         -98.645          48.000  
J03  37323728.738   196137503.665        -239.197          32.000    37323732.229   152834443.4571       -186.707          39.000  
J07  37836113.626   198830118.6823        -98.364          37.000    37836110.666   154932547.5641        -76.768          36.000  
G23  21515727.626   113065910.819         498.954          45.000    21515723.567    88103327.521         389.000          41.000  
G24  23297846.603   122431009.5013      -3135.031          35.000    23297849.981    95400800.0931      -2441.814          37.000  
C13  37973447.638   197737705.675         793.484          45.000    37973441.793   152903308.826         614.591          40.000  
C16  37849338.211   197091435.472          29.445          42.000    37849331.445   152403571.364          23.592          39.000  
C23  23471359.509   122221530.367         662.131          43.000                                                                  
C27  26126731.343   136048740.968       -2303.053          38.000                                                                  
C38  37353089.475   194507346.153         385.978          45.000                                                                  
C06  37445198.343   194986971.919         224.525          44.000    37445185.471   150776239.890         173.937          42.000  
R09  21155847.144   112971042.4523       1498.329          41.000    21155846.905    87866366.0463       1164.909          35.000  
R21  23782429.240   127264576.033       -3669.632          34.000    23782433.908    98983657.430       -2855.477          33.000  
R10  23509457.379   125318584.937        4035.130          36.000                                                                  
R22  22946573.332   122490366.7673       -701.951          37.000    22946588.006    95270345.6813       -545.417          28.000  
G12  24100912.931   126651191.604        1288.793          41.000    24100911.847    98689537.754        1002.014          25.000  
G18  23215750.840   121999605.272       -2830.097          42.000    23215753.903    95064631.2771      -2204.979          38.000  
G10  23611059.933   124076955.120        2624.252          48.000    23611056.238    96683438.103        2044.951          35.000  
S28  38657603.215   203147079.830         -94.835          41.000  
G28  24692665.639   129760833.4493       2818.336          31.000    24692670.478   101112226.921        2194.832          24.000  
S37  37836109.235   198830093.419         -98.881          41.000  
C32  24975073.508   130051758.945        1289.630          46.000                                                                  
C39  37311327.451   194289877.608        -128.237          44.000                                                                  
E29  25929879.881   136262445.226        -853.946          45.000    25929878.932   104408876.341        -654.339          41.000  
E26  26744346.950   140542491.7071      -2833.914          40.000                                                                  
E27  27746603.718   145809422.831         889.804          38.000    27746607.136   111724093.922         680.693          46.000  
C09                                                                  38607202.036   155455204.0923        287.439          42.000  
G25                                                                  23625029.879    96740547.3311       2026.255          27.000  
> 2025 10 27 02 09 47.0040000  0 29                     
S29  38240752.356   200956509.5753        -96.417          44.000  
J03  37323774.815   196137746.404        -236.943          43.000    37323779.975   152834632.387        -185.070          38.000  
J07  37836132.693   198830218.8452        -94.164          38.000    37836130.562   154932625.560         -73.128          42.000  
G25  23624531.533   124147750.5773       2603.782          39.000    23624536.800    96738528.791        2029.867          35.000  
G23  21515632.885   113065413.103         504.028          44.000    21515628.711    88102939.654         392.765          38.000  
G24  23298442.283                       -3132.728          37.000    23298444.699    95403243.006       -2434.457          32.000  
C13  37973295.472   197736913.129         798.507          40.000    37973289.634   152902696.001         617.777          39.000  
C16  37849332.801   197091407.997          32.889          45.000    37849326.117   152403550.162          25.487          42.000  
C23  23471232.375   122220869.289         667.316          48.000                                                                  
C27  26127174.278   136051047.109       -2301.331          41.000                                                                  
C38  37353015.557   194506961.158         392.168          43.000                                                                  
C06  37445155.468   194986749.212         228.384          43.000    37445142.739   150776067.744         176.547          43.000  
R09  21155568.452   112969546.324        1501.260          49.000    21155566.520    87865201.3782       1167.284          39.000  
R21  23783116.398   127268251.675       -3671.100          47.000    23783120.765    98986516.110       -2855.412          36.000  
R10  23508700.308   125314551.055        4038.690          38.000                                                                  
R22  22946708.544   122491087.8092       -700.955          35.000    22946719.639                        -547.803          28.000  
G12  24100668.152                1       1289.160          46.000    24100666.438                        1005.341          32.000  
G18  23216289.908   122002426.0703      -2827.384          44.000    23216295.551    95066837.932       -2203.077          41.000  
G10  23610560.664   124074332.152        2627.710          44.000    23610557.176    96681394.240        2047.722          37.000  
S28  38657621.705   203147172.8933        -91.668          42.000  
G28  24692127.809                        2812.402          33.000    24692135.239                        2194.411          32.000  
S37  37836128.280   198830195.6093        -94.905          42.000  
C32  24974825.847   130050470.364        1293.384          42.000                                                                  
C39  37311352.261   194290007.650        -123.618          44.000                                                                  
E29  25930042.969                        -852.160          33.000    25930041.796   104409531.420        -650.923          44.000  
E26  26744887.427                       -2835.964          42.000                                                                  
E27  27746434.348                         891.790          39.000    27746435.740   111723398.3401        687.357          34.000  
C09                                                                  38607130.667   155454917.8072        290.515          44.000  
R16                                                                  22939159.280                       -1821.794          18.000  
> 2025 10 27 02 09 48.0040000  0 29                     
S29  38240771.975   200956612.4352       -103.900          42.000  
J03  37323821.374   196137990.622        -241.729          32.000    37323827.763                        -189.897          36.000  
J07  37836152.183   198830320.6842       -102.904          34.000    37836149.006                         -75.681          27.000  
G25  23624034.992   124145141.5532       2595.703          40.000    23624037.864    96736505.432        2022.966          31.000  
G23  21515538.564   113064917.486         494.537          44.000    21515534.428    88102553.485         385.006          41.000  
G24  23299041.342   122437288.6013      -3137.362          41.000    23299045.185    95405694.8271      -2445.855          32.000  
C13  37973143.682   197736122.490         788.601          37.000    37973137.902   152902084.752         609.697          41.000  
C16  37849327.825   197091382.746          23.896          43.000    37849321.381   152403530.680          17.913          37.000  
C23  23471105.556   122220210.034         657.269          46.000                                                                  
C27  26127617.524   136053355.349       -2308.291          42.000                                                                  
C38  37352941.922   194506577.808         382.311          45.000                                                                  
C06  37445113.128   194986528.851         219.175          43.000    37445100.545   150775897.417         169.136          43.000  
R09  21155291.681   112968052.197        1492.162          48.000    21155286.257    87864039.2322       1160.849          41.000  
R21  23783803.836   127271929.478       -3678.572          44.000    23783808.132    98989376.480       -2861.073          36.000  
R10  23507942.576                        4032.458          37.000                                                                  
R16  22939609.965                       -2361.584          26.000    22939590.747                       -1831.950          20.000  
R22  22946843.416   122491795.1702       -707.915          41.000    22946850.732    95271436.8393       -547.928          29.000  
G12  24100423.471   126648579.3273       1285.067          42.000    24100419.987    98687190.0711       1005.235          27.000  
G18  23216829.692   122005260.4722      -2836.389          42.000    23216829.428    95069046.246       -2209.682          31.000  
G10  23610061.800   124071711.623        2620.023          42.000    23610058.620    96679352.313        2040.913          37.000  
S28  38657640.688   203147272.7152       -100.119          41.000  
G28  24691596.276   129755213.7003       2809.177          41.000    24691600.415   101107846.9931       2188.401          37.000  
S37  37836147.746   198830297.4202       -102.941          36.000  
C32  24974578.629   130049183.920        1286.359          41.000                                                                  
C39  37311377.613   194290139.918        -133.583          44.000                                                                  
E29  25930205.796   136264150.3061       -857.381          35.000    25930204.544   104410187.434        -655.903          40.000  
E26  26745425.653   140548160.0681      -2838.552          41.000                                                                  
E27  27746264.819   145807605.0591        887.221          43.000    27746268.614   111722717.677         679.546          43.000  
C09                                                                  38607062.554   155454633.3842        283.527          42.000  
> 2025 10 27 02 09 49.0040000  0 29                     
S29  38240791.362   200956714.1032       -103.387          39.000  
J03  37323867.803   196138248.7293       -245.859          35.000    37323874.969   152835028.2781       -189.340          38.000  
J07  37836171.380   198830422.1022       -104.323          34.000    37836168.581   154932784.8621        -80.115          38.000  
G25  23623542.614   124142553.5512       2595.479          36.000    23623542.608    96734457.5121       2023.268          35.000  
G23  21515444.378   113064421.970         495.025          45.000    21515440.205    88102167.369         385.566          43.000  
G24  23299641.226   122440440.6322      -3136.211          41.000    23299642.055    95408138.549       -2444.323          37.000  
C13  37972991.771   197735331.183         790.787          38.000    37972985.919   152901472.825         611.581          40.000  
C16  37849323.093   197091356.941          25.232          42.000    37849316.419   152403510.696          19.574          39.000  
C23  23470978.927   122219551.190         658.182          44.000                                                                  
C27  26128060.436   136055662.062       -2306.527          38.000                                                                  
C38  37352868.281   194506194.208         383.151          44.000                                                                  
C06  37445070.635   194986307.857         220.202          39.000    37445058.123   150775726.455         170.512          37.000  
R09  21155008.474   112966558.731        1492.581          41.000    21155009.545    87862877.2191       1160.601          37.000  
R21  23784490.927   127275605.833       -3676.445          44.000    23784495.088    98992235.802       -2859.212          37.000  
R10  23507185.203                        4038.743          27.000                                                                  
R16  22940038.287   122541566.1333      -2361.696          30.000                                                                  
R22  22946979.261   122492500.8941       -705.862          44.000    22946984.819    95271993.1412       -548.860          36.000  
G12  24100178.713   126647293.490        1284.482          40.000    24100175.415    98686188.222        1001.669          36.000  
G18  23217368.943   122008093.971       -2834.686          39.000    23217376.021    95071254.519       -2208.404          31.000  
G10  23609562.769   124069089.861        2622.195          41.000    23609560.040    96677309.410        2043.217          39.000  
S28  38657659.379   203147370.8652        -98.290          43.000  
G28  24691060.475   129752403.039        2811.291          42.000    24691065.241   101105656.876        2190.508          36.000  
S37  37836167.018   198830398.7852       -103.834          37.000  
C32  24974331.151   130047896.203        1288.098          41.000                                                                  
C39  37311402.925   194290271.803        -132.178          43.000                                                                  
E29  25930367.403   136265005.744        -854.855          40.000    25930367.272   104410843.016        -655.379          40.000  
E26  26745988.126   140551115.8371      -2836.823          34.000                                                                  
E27  27746095.888   145806716.649         886.896          37.000    27746098.389   111722036.912         679.935          41.000  
C09                                                                  38606993.585   155454348.2272        284.692          41.000  
> 2025 10 27 02 09 50.0040000  0 28                     
S29  38240811.015   200956817.0702       -104.736          36.000  
J03  37323916.268                        -241.412          29.000    37323919.690   152835218.599        -190.964          39.000  
J07  37836191.236                        -101.231          24.000    37836187.609   154932864.498         -79.999          40.000  
G25  23623050.129   124139957.2052       2597.406          30.000    23623050.209    96732435.228        2021.801          27.000  
G23  21515350.425                1        492.896          30.000    21515346.294    88101782.473         384.570          41.000  
G24  23300237.972   122443577.8792      -3138.914          39.000    23300238.886    95410583.186       -2445.072          26.000  
C13  37972839.947   197734541.068         788.105          32.000    37972834.243   152900862.005         610.197          35.000  
C16  37849318.449   197091332.207          25.131          31.000    37849311.750   152403491.724          19.086          40.000  
C23  23470852.829   122218893.526         659.622          39.000                                                                  
C27  26128503.485   136057968.998       -2305.555          30.000                                                                  
C38  37352794.884   194505811.513         384.089          34.000                                                                  
C06  37445028.424                1        217.404          25.000    37445016.011   150775556.509         169.501          39.000  
R09  21154731.356   112965067.005        1493.860          37.000    21154728.962    87861716.807        1160.056          38.000  
R21  23785178.077   127279282.826       -3677.125          32.000    23785181.378                1      -2852.738          22.000  
R10  23506429.968                        4038.077          26.000                                                                  
R16  22940468.004                       -2363.392          28.000                                                                  
G12  24099934.756                        1284.772          31.000    24099928.696    98685186.895        1000.799          31.000  
G18  23217911.777   122010949.4883      -2833.514          27.000    23217909.387    95073463.540       -2210.135          34.000  
G10  23609063.955                        2620.700          22.000    23609061.465    96675267.493        2041.153          26.000  
G28  24690526.522   129749593.330        2807.584          31.000    24690530.525                        2191.036          19.000  
C32  24974082.068                1       1286.115          26.000                                                                  
C39  37311428.501                        -137.865          30.000                                                                  
G32  24415667.930   128305200.4692        975.331          31.000                                                                  
E29  25930529.955   136265862.232        -854.094          30.000    25930530.833                        -650.922          32.000  
E26  26746531.892   140553953.898       -2838.838          31.000                                                                  
E27  27745927.140   145805829.905         884.445          36.000    27745929.597   111721356.950         679.585          38.000  
C09                                                                  38606919.177   155454063.8782        283.906          36.000  
R22                                                                  22947113.433                        -549.915          23.000  
> 2025 10 27 02 09 51.0040000  0 28                     
S29  38240830.433   200956919.0422       -102.435          42.000  
J03  37323961.412   196138748.0653       -244.312          41.000    37323963.011   152835388.9801       -190.293          44.000  
J07  37836209.721   198830623.8193       -103.030          39.000    37836206.010   154932938.0551        -79.759          40.000  
G25  23622552.884   124137361.4472       2595.784          43.000    23622550.751    96730395.7201       2022.566          33.000  
G23  21515255.143   113063428.6083        493.844          41.000    21515252.084    88101397.549         384.596          44.000  
G24  23300832.107   122446715.1582      -3136.977          42.000    23300831.043    95413027.674       -2444.412          39.000  
C13  37972688.176   197733750.448         790.668          39.000    37972682.407   152900250.457         611.678          42.000  
C16  37849313.517   197091307.3172         25.130          43.000    37849306.991   152403472.295          19.507          47.000  
C23  23470726.629   122218236.462         656.843          42.000                                                                  
C27  26128946.653   136060276.1732      -2306.794          32.000                                                                  
C38  37352722.646                1        382.336          40.000                                                                  
C06  37444985.552   194985865.3063        220.502          41.000    37444973.704   150775386.146         170.358          44.000  
R09  21154451.371   112963575.667        1490.501          45.000    21154448.648    87860556.889        1159.512          42.000  
R21  23785864.183   127282963.6943      -3677.066          32.000    23785867.164                       -2859.672          30.000  
R10  23505675.418   125298476.2783       4032.445          32.000                                                                  
R22  22947243.566                1       -708.209          36.000    22947241.939    95273061.0083       -551.501          34.000  
G12  24099691.931   126644735.1253       1284.032          39.000    24099684.672    98684179.5901       1000.278          36.000  
G18  23218452.780   122013784.2712      -2834.946          41.000    23218451.535    95075672.501       -2208.372          37.000  
S28  38657703.199                        -101.641          43.000  
G28  24689991.884   129746782.5513       2810.756          39.000    24689996.551   101101407.9241       2188.434          33.000  
C32  24973837.849   130045326.8213       1288.513          34.000                                                                  
C39  37311453.944   194290530.9223       -132.646          40.000                                                                  
G32  24415481.702   128304221.7272        977.619          32.000                                                                  
E29  25930692.775   136266718.615        -855.153          34.000    25930693.970   104412159.4161       -655.789          40.000  
E26  26747046.492   140556677.3991      -2837.596          42.000                                                                  
E27  27745758.672   145804943.421         885.480          29.000    27745762.540   111720677.519         679.308          33.000  
C09                                                                  38606850.680   155453778.8251        284.852          47.000  
G10                                                                  23608563.094    96673225.190        2043.114          35.000  
> 2025 10 27 02 09 52.0040000  0 28                     
S29  38240850.099   200957021.9242       -103.534          44.000  
J03  37324005.402   196138993.4542       -246.296          42.000    37324009.339   152835580.149        -192.015          46.000  
J07  37836229.304   198830726.6773       -102.480          37.000    37836224.099   154933018.289         -81.115          45.000  
G25  23622058.623   124134766.7442       2594.122          42.000    23622058.393    96728373.852        2022.586          27.000  
G23  21515163.337   113062936.0892        492.271          43.000    21515158.009    88101013.714         383.178          47.000  
G24  23301428.715   122449853.6022      -3138.870          43.000    23301428.622    95415473.145       -2445.843          41.000  
C13  37972536.352   197732960.591         789.413          39.000    37972530.758   152899639.721         610.127          41.000  
C16  37849308.934   197091283.3712         23.024          42.000    37849302.473   152403453.679          17.736          48.000  
C23  23470600.856   122217580.758         654.945          44.000                                                                  
C09  38606791.072                         367.139          42.000    38606780.336   155453495.036         282.889          45.000  
C38  37352649.000   194505046.3223        381.267          45.000                                                                  
C06  37444944.212   194985646.1042        217.652          39.000    37444931.605   150775216.571         168.831          44.000  
R09  21154171.417   112962086.125        1488.768          45.000    21154169.889    87859398.419        1157.977          40.000  
R21  23786548.467   127286641.5652      -3679.640          27.000    23786554.728    99000734.5553      -2860.300          33.000  
R10  23504919.247   125294445.2712       4030.585          35.000                                                                  
R22  22947373.177   122494653.6653       -711.742          34.000    22947370.199    95273612.9302       -552.104          29.000  
G12  24099450.057   126643452.5482       1282.494          40.000    24099444.657    98683180.145         999.016          37.000  
G18  23218993.889   122016620.3542      -2837.250          44.000    23218991.500    95077882.442       -2210.656          42.000  
G10  23608070.692   124061248.5493       2618.714          33.000    23608064.665    96671183.619        2040.273          37.000  
S28  38657716.822                         -98.656          40.000  
G28  24689456.366   129743968.3242       2807.608          30.000    24689460.144   101099219.622        2186.456          35.000  
C32  24973593.832   130044040.4092       1284.973          34.000                                                                  
C39  37311480.384   194290664.4922       -134.450          40.000                                                                  
G32  24415296.421   128303245.4042        975.216          35.000                                                                  
E29  25930855.871   136267575.476        -857.194          37.000    25930857.152   104412816.021        -656.168          40.000  
E26  26747575.717   140559516.166       -2838.304          32.000                                                                  
E27  27745590.732                         887.497          18.000    27745595.180   111719999.014         676.624          33.000  
R16                                                                  22941261.004                       -1838.873          22.000  
> 2025 10 27 02 09 53.0040000  0 28                     
S29  38240869.426   200957123.3863       -101.038          42.000  
J03  37324049.809   196139237.9322       -243.586          41.000    37324056.807   152835770.604        -189.895          43.000  
J07  37836248.838   198830828.7203       -100.881          35.000    37836243.914   154933097.737         -78.937          42.000  
G25  23621564.267   124132171.5812       2595.435          36.000    23621564.064    96726351.660        2022.584          36.000  
G23  21515067.195   113062442.9792        493.843          43.000    21515063.828    88100629.432         384.933          43.000  
G24  23302028.997   122452991.4272      -3136.813          37.000    23302025.863    95417918.103       -2444.106          40.000  
C13  37972384.518   197732169.732         791.902          40.000    37972378.954   152899028.189         612.071          39.000  
C16  37849304.424   197091258.4792         25.669          44.000    37849297.678   152403434.448          19.992          44.000  
C23  23470475.116   122216924.500         657.136          47.000                                                                  
C09  38606721.026   201035326.9713        368.946          42.000    38606708.805   155453210.575         285.186          41.000  
C38  37352577.997   194504663.6922        383.601          45.000                                                                  
C06  37444902.945   194985426.0092        221.146          42.000    37444889.333   150775046.429         170.619          40.000  
R09  21153891.911   112960596.452        1489.819          45.000    21153891.151    87858239.707        1159.235          38.000  
R21  23787234.348   127290295.9173      -3676.239          29.000    23787239.189    99003594.1871      -2859.056          29.000  
R10  23504161.690   125290413.1621       4033.726          31.000                                                                  
R22  22947501.819   122495322.9563       -708.946          34.000    22947506.050    95274164.2011       -550.283          34.000  
G12  24099207.456   126642169.2462       1284.259          39.000    24099198.390    98682180.102        1000.291          30.000  
G18  23219532.063   122019455.8002      -2834.380          43.000    23219532.040    95080091.823       -2208.724          40.000  
G10  23607566.134   124058596.3593       2622.414          33.000    23607566.008    96669141.362        2042.802          35.000  
S28  38657733.176   203147757.9743        -97.616          41.000  
G28  24688918.314                        2810.016          22.000    24688926.403   101097030.822        2188.891          31.000  
C32  24973347.552   130042752.6562       1288.525          36.000                                                                  
C39  37311507.765   194290797.1312       -131.704          46.000                                                                  
G32  24415110.307   128302269.9963        977.479          33.000                                                                  
E29  25931019.663   136268431.547        -855.239          34.000    25931018.313   104413471.980        -655.465          38.000  
E26  26748129.384   140562354.283       -2836.884          41.000                                                                  
E27                                                                  27745423.890   111719320.080         679.268          34.000  
R16                                                                  22941697.396                       -1838.378          22.000  
> 2025 10 27 02 09 54.0040000  0 27                     
S29  38240888.602   200957224.3812       -102.441          42.000  
J03  37324101.915   196139481.9252       -247.342          35.000    37324103.554   152835960.596        -191.533          43.000  
J07  37836269.234   198830935.9262       -103.300          40.000    37836262.886   154933176.558         -79.683          43.000  
G25  23621070.386   124129575.6902       2593.528          38.000    23621073.010    96724328.944        2021.043          37.000  
G23  21514974.003   113061949.6082        491.504          44.000    21514969.627    88100244.990         383.248          43.000  
G24  23302626.494   122456128.6582      -3139.089          37.000    23302622.982    95420362.767       -2446.177          38.000  
C13  37972232.424   197731378.214         790.042          37.000    37972226.925   152898416.092         610.875          40.000  
C16  37849299.823   197091232.8352         24.173          45.000    37849292.777   152403414.658          18.320          45.000  
C23  23470349.169   122216268.055         654.452          44.000                                                                  
C09  38606649.059   201034958.2602        367.201          43.000    38606638.008   155452925.536         283.942          42.000  
C38  37352504.568   194504280.3152        381.818          46.000                                                                  
C06  37444860.389   194985205.1282        219.628          43.000    37444846.871   150774875.674         169.684          42.000  
R09  21153613.066   112959106.737        1487.436          44.000    21153612.167    87857081.102        1157.347          41.000  
R21  23787924.047   127293972.6822      -3680.306          30.000    23787923.625    99006453.562       -2860.115          27.000  
R10  23503405.503   125286381.205        4030.844          35.000                                                                  
R22  22947639.570   122496032.0842       -711.236          39.000    22947638.805    95274715.836        -553.504          31.000  
G12  24098962.133   126640885.7132       1282.037          40.000    24098955.270    98681179.953         998.434          31.000  
G18  23220071.811   122022290.6862      -2836.559          42.000    23220071.119    95082300.874       -2210.913          35.000  
G10  23607065.433   124055965.4672       2620.255          37.000    23607067.086    96667098.339        2042.106          36.000  
S28  38657753.538   203147855.4422        -99.274          43.000  
G28  24688384.903   129738338.2683       2808.752          29.000    24688390.145   101094841.597        2188.355          33.000  
C32  24973100.003   130041464.0962       1287.061          38.000                                                                  
C39  37311532.468   194290929.0402       -133.287          46.000                                                                  
G32  24414922.959   128301291.8702        977.348          35.000                                                                  
E29  25931183.605   136269286.722        -857.121          39.000    25931181.714   104414127.192        -657.033          40.000  
E26  26748672.506   140565191.745       -2839.505          39.000                                                                  
E27  27745248.654   145802265.7261        885.104          36.000    27745253.267   111718640.992         678.144          34.000  
> 2025 10 27 02 09 55.0040000  0 27                     
S29  38240907.833   200957325.278         -99.725          40.000  
J03  37324147.997   196139725.0351       -242.623          37.000    37324150.590   152836150.384        -189.105          43.000  
J07  37836288.988   198831039.7772        -99.376          40.000    37836282.687   154933255.173         -77.461          45.000  
G25  23620576.687   124126979.1931       2597.188          43.000    23620578.251    96722306.031        2023.309          39.000  
G23  21514881.364   113061455.9081        493.581          41.000    21514875.598    88099860.618         385.404          44.000  
G24  23303223.085   122459265.5431      -3132.885          31.000    23303219.759    95422807.160       -2442.370          33.000  
C13  37972080.382   197730586.468         792.905          37.000    37972074.935   152897803.709         613.767          41.000  
C16  37849294.832   197091207.1512         26.926          43.000    37849287.829   152403394.742          21.062          44.000  
C23  23470223.053   122215611.706         657.364          41.000                                                                  
C09  38606578.595   201034589.5902        370.116          37.000    38606567.176   155452640.385         286.583          41.000  
C38  37352430.211   194503896.7962        384.163          42.000                                                                  
C06  37444817.742   194984984.2162        222.471          42.000    37444804.373   150774704.834         171.737          41.000  
R09  21153334.317   112957617.436        1490.029          43.000    21153333.296    87855922.766        1158.693          40.000  
R21  23788615.411   127297685.9283      -3674.160          29.000    23788609.000    99009313.016       -2858.646          27.000  
R10  23502651.267   125282349.211        4030.703          30.000                                                                  
R22  22947772.287   122496741.3891       -708.651          36.000    22947769.220    95275267.751        -551.134          30.000  
G12  24098718.883   126639601.8781       1283.635          40.000    24098715.077    98680179.996        1001.402          35.000  
G18  23220612.177   122025125.3191      -2834.159          43.000    23220610.378    95084509.950       -2208.342          34.000  
G10  23606566.730   124053345.1723       2622.931          37.000    23606568.121    96665055.306        2044.640          33.000  
S28  38657772.748   203147952.8682        -95.930          40.000  
G28  24687848.329                        2812.411          28.000    24687857.245   101092652.487        2190.407          31.000  
C32  24972855.829   130040175.3472       1290.179          37.000                                                                  
C39  37311558.638   194291060.8912       -130.485          44.000                                                                  
G32  24414735.883   128300302.3263        979.517          32.000                                                                  
E29  25931346.418   136270141.574        -853.691          35.000    25931342.876   104414782.083        -653.767          37.000  
E26  26749213.659   140568029.189       -2837.816          39.000                                                                  
E27  27745082.851   145801379.378         888.068          35.000    27745086.271                         679.828          33.000  
> 2025 10 27 02 09 56.0040000  0 28                     
S29  38240926.998   200957425.877        -100.061          37.000  
J03  37324194.545   196139968.665        -244.225          42.000    37324196.615   152836340.485        -190.669          36.000  
J07  37836307.257   198831140.6812       -101.096          38.000    37836301.917   154933333.671         -78.871          43.000  
G25  23620082.833   124124383.369        2594.940          39.000    23620084.804    96720283.310        2022.388          39.000  
G23  21514788.332   113060962.961         492.766          40.000    21514781.824    88099476.533         383.709          43.000  
G24  23303822.009   122462410.8313      -3138.613          37.000    23303816.797    95425251.872       -2445.115          33.000  
C13  37971928.317   197729794.363         791.558          39.000    37971922.897   152897191.230         612.325          42.000  
C16  37849289.938   197091181.3862         25.384          44.000    37849282.825   152403374.797          19.606          39.000  
C23  23470097.024   122214955.903         655.448          45.000                                                                  
C09  38606507.277   201034220.7132        368.826          37.000    38606496.342   155452355.256         284.906          43.000  
C38  37352356.070   194503513.1992        383.549          41.000                                                                  
C06  37444775.458   194984763.2492        220.711          43.000    37444761.879   150774533.959         170.308          39.000  
R09  21153055.541   112956128.966        1487.964          42.000    21153054.554    87854764.973        1156.996          40.000  
R21  23789305.939   127301361.9802      -3675.023          29.000    23789295.948    99012172.215       -2859.047          27.000  
R10  23501892.880   125278316.545        4033.420          35.000                                                                  
R16  22943098.282   122557912.2463      -2364.075          30.000                                                                  
R22  22947907.669   122497451.313        -710.267          39.000    22947902.389    95275819.895        -552.408          33.000  
G12  24098475.851                1       1283.079          23.000    24098468.069    98679180.622         997.199          29.000  
G18  23221151.463   122027960.459       -2835.948          43.000    23221149.907    95086719.158       -2209.795          35.000  
G10  23606071.680   124050723.0282       2622.198          35.000    23606069.135    96663012.311        2042.000          31.000  
S28  38657791.284   203148049.9912        -96.537          39.000  
G28  24687317.818   129732730.4253       2810.360          27.000    24687320.952   101090463.335        2188.928          35.000  
C32  24972606.665   130038886.2572       1289.294          36.000                                                                  
C39  37311582.564   194291192.6182       -132.245          45.000                                                                  
G32  24414550.077   128299326.5013        977.593          26.000                                                                  
E29  25931508.874   136270996.269        -854.943          37.000    25931506.874   104415436.809        -654.621          39.000  
E26  26749750.753   140570866.533       -2838.708          35.000                                                                  
E27  27744912.448   145800493.127         883.937          32.000    27744915.965   111717285.7471        678.535          34.000  
> 2025 10 27 02 09 57.0040000  0 28                     
S29  38240946.083   200957526.564        -102.460          35.000  
J03  37324240.619   196140212.575        -245.161          37.000    37324242.776   152836530.443        -191.120          42.000  
J07  37836327.015   198831241.5692       -102.571          36.000    37836321.179   154933412.309         -79.443          44.000  
G25  23619589.083   124121787.889        2594.491          44.000    23619590.913    96718260.785        2021.033          38.000  
G23  21514693.136   113060470.629         491.578          40.000    21514687.941    88099092.914         382.648          46.000  
G24  23304421.435   122465548.3052      -3138.159          41.000    23304414.010    95427696.829       -2445.844          36.000  
C13  37971776.450   197729002.528         790.533          36.000    37971770.853   152896578.939         611.577          35.000  
C16  37849285.333   197091155.909          23.931          43.000    37849277.560   152403355.238          18.781          35.000  
C23  23469971.182   122214300.682         653.707          45.000                                                                  
C09  38606436.060   201033852.3622        366.137          34.000    38606425.554   155452070.182         284.068          43.000  
C38  37352282.456   194503129.817         382.191          42.000                                                                  
C06  37444731.620   194984542.0451        219.135          40.000    37444719.426   150774363.348         169.639          37.000  
R09  21152777.074   112954641.238        1485.746          42.000    21152775.959    87853607.916        1156.069          41.000  
R21  23789993.239   127305038.4762      -3677.871          36.000    23789983.139                1      -2846.298          24.000  
R10  23501137.441   125274284.448        4029.816          34.000                                                                  
R16  22943534.533                       -2367.026          23.000                                                                  
R22  22948044.559   122498162.291        -712.471          40.000    22948035.411    95276372.866        -553.757          29.000  
G12  24098218.807   126636994.4113       1281.655          37.000    24098223.483    98678181.231         998.663          34.000  
G18  23221690.737   122030796.064       -2837.240          43.000    23221689.494    95088928.707       -2210.629          38.000  
G10  23605575.052   124048101.2692       2619.980          37.000    23605570.024    96660969.284        2042.338          29.000  
S28  38657809.698   203148147.3142        -98.733          42.000  
G28  24686784.570   129729927.5642       2806.545          34.000    24686784.131   101088274.488        2186.905          30.000  
C32  24972359.474   130037596.8121       1287.927          37.000                                                                  
C39  37311607.892   194291324.1591       -133.433          43.000                                                                  
G32  24414366.393                         978.212          25.000                                                                  
E29  25931672.304   136271850.785        -854.530          36.000    25931671.053   104416091.650        -655.447          39.000  
E26  26750290.587                       -2836.726          25.000                                                                  
E27  27744751.204   145799607.463         884.155          35.000    27744749.099   111716607.093         677.682          37.000  
> 2025 10 27 02 09 58.0040000  0 27                     
J03  37324288.252                1       -252.494          27.000    37324289.101   152836720.436        -185.715          31.000  
J07  37836346.336   198831342.1722       -101.865          31.000    37836340.431   154933490.867         -77.876          41.000  
G25  23619098.581   124119200.7553       2595.205          40.000    23619097.056    96716238.346        2022.240          33.000  
G23  21514599.352   113059978.854         493.030          42.000    21514594.333    88098709.644         383.825          45.000  
G24  23305016.617   122468686.3862      -3136.905          46.000    23305011.092    95430141.960       -2443.811          37.000  
C13  37971624.492   197728210.879         793.641          37.000    37971618.840   152895966.830         613.287          41.000  
C16  37849280.643   197091130.701          25.165          39.000    37849272.542   152403335.778          19.818          31.000  
C23  23469845.544   122213645.856         654.592          38.000                                                                  
C38  37352208.772   194502746.527         384.519          41.000                                                                  
C06  37444689.299   194984321.498         220.783          30.000    37444676.964   150774192.890         171.720          33.000  
R09  21152498.641   112953154.102        1485.422          40.000    21152497.467    87852451.271        1156.793          41.000  
R21  23790676.063   127308715.2682      -3677.180          36.000    23790673.592    99017876.9673      -2857.508          31.000  
R10  23500381.735                1       4028.924          22.000                                                                  
R22  22948178.736   122498874.404        -711.626          28.000    22948170.149    95276926.338        -553.845          29.000  
G12  24097981.379   126635746.0263       1283.304          38.000    24097979.045    98677181.912        1000.352          29.000  
G18  23222230.426   122033644.1253      -2835.890          36.000    23222231.241    95091154.7641      -2208.013          32.000  
G10  23605077.131   124045479.5042       2625.565          29.000    23605071.140    96658926.878        2043.351          34.000  
S28  38657828.263   203148244.9402        -97.960          40.000  
G28  24686251.839                        2810.637          21.000    24686249.347   101086086.298        2189.798          33.000  
C32  24972111.730   130036308.236        1286.896          32.000                                                                  
C39  37311633.472   194291456.410        -131.238          38.000                                                                  
G32  24414183.188                         982.916          25.000                                                                  
E29  25931838.037   136272728.5741       -852.583          36.000    25931833.910   104416746.614        -654.250          43.000  
E26  26750829.611   140576558.0821      -2839.680          31.000                                                                  
E27  27744581.825   145798721.706         883.271          32.000    27744584.489                         679.312          22.000  
C09                                                                  38606355.006   155451785.646         284.444          39.000  
R16                                                                  22943916.803                       -1835.843          21.000  
> 2025 10 27 02 09 59.0040000  0 28                     
J03  37324334.709   196140701.9033       -243.944          32.000    37324335.338   152836910.057        -189.675          35.000  
J07  37836365.398   198831441.7363       -101.301          26.000    37836359.608                         -75.854          23.000  
G25  23618603.248   124116605.3862       2593.067          30.000    23618603.553    96714216.108        2022.950          26.000  
G23  21514505.803   113059486.941         490.254          37.000    21514501.047    88098326.498         382.087          39.000  
G24  23305612.282   122471824.1432      -3138.434          35.000    23305608.511    95432586.898       -2445.250          43.000  
C13  37971472.417   197727418.721         791.423          38.000    37971466.635   152895354.228         612.125          32.000  
C16  37849275.754   197091105.208          24.740          40.000    37849264.904   152403305.5203         19.099          34.000  
C23  23469719.723   122212990.877         652.262          37.000                                                                  
C09  38606296.039   201033113.6653        368.283          34.000    38606284.152   155451500.446         285.154          34.000  
C38  37352134.876   194502362.724         382.179          41.000                                                                  
C06  37444647.224   194984101.033         219.702          39.000    37444634.491   150774022.254         170.043          37.000  
R09  21152220.276   112951667.369        1485.154          38.000    21152219.028    87851294.812        1154.224          31.000  
R21  23791363.054   127312391.581       -3678.232          32.000    23791361.292    99020739.8912      -2858.964          30.000  
R10  23499626.887   125266234.6713       4030.229          25.000                                                                  
R22  22948312.091   122499586.985        -713.848          39.000    22948307.631    95277485.3743       -555.391          34.000  
G12  24097734.085   126634446.7503       1281.267          33.000    24097734.908    98676182.779         998.365          30.000  
G18  23222770.253   122036480.4862      -2835.965          36.000    23222774.207    95093364.879       -2211.246          27.000  
G10  23604575.677   124042881.4183       2621.811          34.000    23604572.299    96656884.071        2042.326          32.000  
S28  38657846.771   203148341.8562        -95.244          34.000  
G28  24685719.617   129724331.7823       2808.730          29.000    24685715.413   101083897.811        2188.995          31.000  
S37  37836360.361                        -101.514          29.000  
C32  24971863.808   130035019.037        1289.685          25.000                                                                  
C39  37311658.800   194291588.412        -132.751          41.000                                                                  
G32  24414004.680   128296459.8653        977.465          31.000                                                                  
E29  25931995.792                        -858.682          29.000    25931995.687   104417401.158        -655.495          33.000  
E26  26751366.328   140579395.458       -2837.105          26.000                                                                  
E27  27744407.016   145797836.075         883.851          31.000    27744411.142                         676.078          18.000  
R16                                                                  22944362.342    95328072.1543      -1840.849          28.000  
> 2025 10 27 02 10 00.0040000  0 28                     
J03  37324384.513   196140964.2162       -246.047          35.000    37324381.906   152837100.891        -190.178          42.000  
J07  37836384.647   198831542.3812       -102.961          35.000    37836379.785                         -74.205          29.000  
G25  23618111.629   124114011.1802       2593.462          38.000    23618112.147                        2019.617          31.000  
G23  21514412.650   113058996.976         489.308          43.000    21514408.057    88097944.626         380.149          41.000  
G24  23306209.766   122474963.0002      -3139.607          39.000    23306206.097    95435032.873       -2445.727          42.000  
C13  37971320.549   197726627.731         790.432          34.000    37971314.683   152894742.478         612.737          29.000  
C16  37849271.136   197091081.086          23.392          42.000    37849263.659   152403286.8122         18.196          43.000  
C23  23469594.376   122212338.085         652.440          42.000                                                                  
C09  38606225.440   201032746.8322        366.228          36.000    38606213.855   155451216.535         283.214          46.000  
C38  37352061.461   194501980.535         382.082          45.000                                                                  
C06  37444605.119   194983881.679         217.913          42.000    37444592.387   150773852.604         169.192          42.000  
R09  21151942.222   112950182.661        1483.157          40.000    21151942.443    87850149.0643       1153.003          37.000  
R21  23792049.167   127316069.903       -3678.412          36.000    23792049.064    99023600.5742      -2862.599          34.000  
R10  23498868.923                        4028.737          30.000                                                                  
R16  22944850.286                       -2368.756          23.000                                                                  
R22  22948445.595   122500301.283        -715.673          36.000    22948444.455    95278040.8942       -554.445          36.000  
G12  24097491.935   126633174.2282       1280.800          31.000    24097491.323    98675185.115         996.515          29.000  
G18  23223310.304   122039317.9802      -2839.202          41.000    23223303.378    95095575.902       -2211.743          35.000  
G10  23604079.975   124040261.6032       2617.766          34.000    23604073.705    96654842.145        2041.732          35.000  
S28  38657865.410   203148440.0032        -98.600          40.000  
G28  24685182.644   129721509.9482       2805.495          33.000    24685181.453   101081710.812        2185.663          37.000  
S37  37836379.757   198831517.0643       -102.331          39.000  
C32  24971619.702                1       1290.640          36.000                                                                  
C39  37311684.150   194291721.811        -134.747          42.000                                                                  
G32  24413819.861   128295488.5922        976.801          33.000                                                                  
E29  25932163.467                        -857.064          34.000    25932158.441   104418056.196        -654.750          41.000  
E26  26751909.668   140582234.411       -2839.323          38.000                                                                  
E27  27744241.258   145796951.745         885.170          34.000    27744244.405   111714575.4101        673.752          32.000  
> 2025 10 27 02 10 01.0040000  0 27                     
J03  37324426.724   196141186.2532       -245.836          41.000    37324428.592   152837292.593        -190.670          43.000  
J07  37836405.639   198831644.5701       -101.907          40.000    37836401.416                         -81.425          29.000  
G25  23617619.887   124111417.6251       2593.265          44.000    23617615.274                        2023.193          24.000  
G23  21514319.754   113058508.494         489.783          47.000    21514315.181    88097564.066         381.964          38.000  
G24  23306805.705                       -3140.520          28.000    23306803.923    95437480.120       -2445.958          38.000  
C13  37971168.895   197725838.436         791.208          36.000    37971163.191   152894132.385         610.215          26.000  
C16  37849266.817   197091058.511          23.910          41.000    37849257.618   152403269.4622         18.182          36.000  
C23  23469469.025   122211686.701         652.215          43.000                                                                  
C09  38606154.592   201032381.3242        365.838          39.000    38606143.736   155450934.074         283.043          39.000  
C38  37351987.930   194501599.330         382.345          45.000                                                                  
C06  37444563.325   194983663.940         218.547          42.000    37444550.620   150773684.366         168.017          36.000  
R09  21151664.724   112948699.726        1484.187          46.000    21151666.365    87849002.7592       1152.698          34.000  
R21  23792737.359   127319743.2623      -3678.256          42.000    23792737.674                       -2863.361          28.000  
R10  23498111.243   125258155.4883       4028.664          27.000                                                                  
R22  22948577.899   122501067.1363       -715.499          38.000    22948580.939    95278620.4533       -556.607          34.000  
G12  24097249.300   126631899.3393       1279.356          33.000    24097247.924    98674187.696         995.848          19.000  
G18  23223850.378   122042157.227       -2838.552          43.000    23223846.257    95097788.375       -2212.152          35.000  
G10  23603578.022                        2618.390          29.000    23603575.563    96652802.191        2041.199          34.000  
S28  38657884.489   203148540.183         -98.927          44.000  
G28  24684649.222   129718707.1822       2806.450          33.000    24684647.960                        2186.888          26.000  
S37  37836399.397   198831619.8262       -102.153          43.000  
C32  24971368.944   130032470.4813       1290.527          30.000                                                                  
C39  37311709.751   194291856.719        -134.237          42.000                                                                  
G32  24413631.267   128294498.0793        974.927          32.000                                                                  
E29  25932327.230   136275298.7071       -855.921          35.000    25932321.088   104418712.994        -655.219          34.000  
E26  26752451.074   140585074.872       -2840.088          42.000                                                                  
E27  27744080.624                         881.086          24.000    27744076.650   111713898.831         676.646          30.000  
> 2025 10 27 02 10 02.0040000  0 28                     
J03  37324468.449                        -246.653          38.000    37324475.299   152837484.795        -191.610          40.000  
J07  37836425.997   198831747.777        -103.102          41.000    37836419.707   154933812.8231        -80.114          42.000  
G25  23617122.145   124108825.233        2592.537          44.000    23617123.302    96708171.8191       2019.951          32.000  
G23  21514227.143   113058020.995         486.858          45.000    21514222.393    88097184.131         379.824          42.000  
G24  23307400.515   122481215.4933      -3141.252          36.000    23307401.700    95439927.706       -2448.235          37.000  
C13  37971017.310   197725051.2053        789.552          36.000    37971010.593   152893524.5403        610.691          37.000  
C16  37849262.664   197091036.294          22.195          42.000    37849251.070   152403252.2752         17.705          41.000  
C23  23469344.088   122211036.190         650.364          48.000                                                                  
C09  38606084.471   201032016.0662        366.765          37.000    38606073.551   155450651.468         283.102          39.000  
C38  37351914.685   194501218.674         380.303          44.000                                                                  
C06  37444521.570   194983446.543         217.856          42.000    37444508.829   150773516.123         169.080          42.000  
R09  21151387.279   112947218.157        1481.240          44.000    21151386.437    87847850.4032       1152.302          39.000  
R21  23793422.419   127323423.1442      -3677.843          37.000    23793423.074    99029330.5103      -2861.638          32.000  
R10  23497353.772   125254117.3663       4030.088          35.000                                                                  
R16  22945726.472                       -2371.622          31.000    22945700.567                       -1843.829          23.000  
R22  22948708.326   122501784.9232       -716.994          38.000    22948711.830    95279178.7702       -558.011          34.000  
G12  24097008.088                        1277.087          34.000    24097004.931    98673192.213         995.821          28.000  
G18  23224390.532   122044997.237       -2838.268          42.000    23224384.483    95100001.287       -2212.396          38.000  
G10  23603078.959   124035016.1203       2617.575          29.000    23603077.296    96650761.967        2040.891          37.000  
S28  38657903.544   203148640.250         -98.387          42.000  
G28  24684115.124   129715902.7992       2807.009          28.000    24684116.451   101077329.8631       2185.106          31.000  
S37  37836418.970   198831723.0062       -103.041          44.000  
C32  24971118.528   130031166.3793       1283.270          30.000                                                                  
C39  37311735.632   194291991.935        -134.761          41.000                                                                  
G32  24413447.567   128293532.5713        976.708          32.000                                                                  
E29  25932482.168   136276112.6901       -856.912          37.000    25932483.914   104419369.534        -656.174          40.000  
E26  26752987.975   140587915.680       -2840.419          43.000                                                                  
E27  27743911.671   145795239.4791        882.475          30.000    27743908.939                         674.389          29.000  
> 2025 10 27 02 10 03.0040000  0 28                     
J03  37324518.703   196141668.8933       -245.227          40.000    37324521.596   152837675.641        -191.040          41.000  
J07  37836444.071   198831849.273        -102.012          38.000    37836438.586   154933890.8181        -79.114          44.000  
G25  23616627.513   124106231.473        2593.201          42.000    23616628.135    96706150.660        2020.994          35.000  
G23  21514134.255   113057532.237         488.214          42.000    21514129.457    88096803.290         380.895          47.000  
G24  23308000.429   122484355.2552      -3140.077          42.000    23307999.186    95442374.168       -2445.999          39.000  
C13  37970865.400   197724260.349         790.989          40.000    37970856.711   152892912.6231        611.289          39.000  
C16  37849257.821   197091012.523          23.496          38.000    37849247.978   152403233.5831         17.739          42.000  
C23  23469218.830   122210384.622         651.228          45.000                                                                  
C09  38606011.683   201031648.9621        364.868          30.000    38606003.101   155450367.988         282.389          40.000  
C38  37351841.153   194500836.509         381.800          41.000                                                                  
C06  37444479.507   194983227.571         218.841          37.000    37444466.782   150773346.991         168.658          43.000  
R09  21151109.576   112945735.638        1481.341          45.000    21151106.244    87846697.412        1152.894          41.000  
R21  23794111.963   127327098.5113      -3679.163          44.000    23794111.538    99032186.5933      -2861.473          32.000  
R10  23496593.184   125250087.4552       4028.241          36.000                                                                  
R16  22946166.706   122574303.0303      -2370.740          35.000    22946145.544                       -1845.703          23.000  
R22  22948839.051   122502460.8353       -717.170          44.000    22948850.913    95279741.3153       -558.185          35.000  
G12  24096762.122   126629339.3293       1278.563          41.000    24096761.801                         998.488          29.000  
G18  23224930.635   122047835.942       -2839.610          44.000    23224925.410    95102213.161       -2212.153          41.000  
G10  23602578.599   124032396.1282       2619.265          37.000    23602578.765    96648720.246        2041.930          34.000  
S28  38657922.319   203148738.610         -99.010          39.000  
G28  24683580.923   129713096.8542       2805.846          31.000    24683582.250   101075143.529        2185.151          31.000  
S37  37836438.350   198831824.5092       -101.942          42.000  
C32  24970869.080   130029878.2632       1287.177          34.000                                                                  
C39  37311761.037   194292125.661        -134.120          40.000                                                                  
G32  24413260.633   128292549.7602        975.391          34.000                                                                  
E29  25932646.807   136276968.035        -854.733          35.000    25932646.519   104420025.033        -655.437          44.000  
E26  26753529.627   140590754.931       -2840.072          43.000                                                                  
E27  27743738.688   145794330.729         882.793          37.000    27743740.570   111712546.4721        676.760          39.000  
> 2025 10 27 02 10 04.0040000  0 28                     
J03  37324563.199   196141902.9453       -247.361          38.000    37324568.684   152837868.244        -192.837          41.000  
J07  37836460.597   198831952.778        -103.939          35.000    37836460.724   154933971.497         -80.514          38.000  
G25  23616136.036   124103639.957        2590.482          41.000    23616138.586    96704139.1921       2019.178          28.000  
G23  21514041.744   113057046.289         484.698          40.000    21514037.263    88096424.547         377.352          44.000  
G24  23308601.200   122487497.7512      -3142.923          43.000    23308597.332    95444822.882       -2449.686          42.000  
C13  37970714.062   197723472.025         787.042          41.000    37970705.761   152892302.988         608.813          39.000  
C16  37849253.595   197090991.180          20.491          41.000    37849241.586   152403216.891          15.847          41.000  
C23  23469094.131   122209735.743         647.385          41.000                                                                  
C09  38605941.110   201031284.278         364.010          35.000    38605933.059   155450086.040         281.075          38.000  
C38  37351768.219   194500456.639         379.326          41.000                                                                  
C06  37444437.875   194983011.076         216.271          35.000    37444425.096   150773179.437         166.644          43.000  
R09  21150832.532   112944256.054        1478.740          45.000    21150830.562    87845546.689        1149.924          37.000  
R21  23794799.647   127330779.0982      -3681.335          38.000    23794798.793    99035046.8402      -2862.298          33.000  
R10  23495836.705   125246059.7912       4026.671          36.000                                                                  
R16  22946607.393   122576657.7323      -2375.088          31.000                                                                  
R22  22948981.988   122503180.7312       -721.458          41.000    22948986.287    95280303.1423       -561.472          31.000  
G12  24096519.707   126628065.4433       1275.629          33.000    24096519.431    98671217.9491        993.704          36.000  
G18  23225471.043   122050676.888       -2842.329          38.000    23225467.386    95104426.941       -2213.358          36.000  
G10  23602084.049   124029778.9032       2615.514          37.000    23602082.214    96646580.9151       2037.334          30.000  
S28  38657941.506   203148839.295        -101.236          41.000  
G28  24683044.490   129710273.9183       2801.576          34.000    24683049.717   101072961.7961       2184.127          31.000  
S37  37836458.090   198831928.0072       -104.027          38.000  
C32  24970625.676   130028592.7022       1284.088          34.000                                                                  
C39  37311787.108   194292261.718        -136.647          43.000                                                                  
G32  24413071.157   128291553.9453        974.831          35.000                                                                  
E29  25932808.810   136277825.673        -859.178          42.000    25932809.279   104420682.166        -657.802          45.000  
E26  26754072.797   140593596.441       -2842.424          43.000                                                                  
E27  27743565.204   145793449.581         880.126          32.000    27743571.788   111711871.453         673.477          37.000  
> 2025 10 27 02 10 05.0040000  0 28                     
J03  37324609.652   196142147.2883       -247.791          32.000    37324615.579   152838060.902        -191.869          37.000  
G25  23615643.318   124101048.802        2591.024          35.000    23615643.460    96702120.443        2019.356          32.000  
G23  21513949.522   113056561.230         485.712          36.000    21513945.018    88096046.707         378.606          36.000  
G24  23309195.254   122490641.2062      -3142.545          33.000    23309195.551    95447272.334       -2446.979          27.000  
C13  37970562.724   197722684.210         789.429          36.000    37970555.800   152891693.739         610.059          35.000  
C16  37849249.598   197090970.163          22.114          45.000    37849237.949   152403200.615          17.865          37.000  
C23  23468969.675   122209087.626         648.890          40.000                                                                  
C09  38605872.917   201030919.992         365.114          42.000    38605863.049   155449804.270         283.066          42.000  
C38  37351695.242   194500077.507         379.850          37.000                                                                  
C06  37444396.308   194982794.701         217.499          41.000    37444383.558   150773012.128         168.152          42.000  
R09  21150555.573   112942777.608        1478.558          33.000    21150552.635                        1149.744          25.000  
R21  23795485.844   127334459.596       -3679.549          43.000    23795488.045    99037915.2512      -2861.914          33.000  
R10  23495080.784   125242032.108        4027.796          37.000                                                                  
R16  22947049.988   122579021.4472      -2373.195          30.000                                                                  
R22  22949110.379   122503901.0871       -719.417          45.000    22949118.696    95280852.8972       -559.195          34.000  
G12  24096279.453   126626802.6663       1276.160          32.000    24096278.461                         994.985          22.000  
G18  23226011.544   122053518.354       -2840.347          42.000    23226007.801    95106641.002       -2213.412          43.000  
G10  23601585.510   124027162.4042       2618.056          37.000    23601585.122    96644542.100        2040.402          31.000  
S28  38657960.580   203148939.935         -99.347          46.000  
G28  24682511.547   129707472.7032       2804.695          28.000    24682512.453   101070777.565        2184.883          34.000  
S37  37836477.933   198832031.9452       -103.325          29.000  
C32  24970377.888   130027309.8433       1287.262          36.000                                                                  
C39  37311813.357   194292398.378        -135.643          42.000                                                                  
G32  24412880.780   128290553.7023        974.996          32.000                                                                  
E29  25932971.397   136278683.968        -857.372          32.000    25932972.865   104421339.997        -654.475          35.000  
E26  26754612.666   140596438.142       -2841.490          40.000                                                                  
E27  27743400.598   145792569.574         882.223          32.000    27743405.881   111711197.160         675.056          36.000  
J07                                                                  37836479.479   154934052.539         -80.810          36.000  
> 2025 10 27 02 10 06.0040000  0 28                     
S29  38241121.671   200958450.3923        -99.652          42.000  
J03  37324655.701   196142389.0882       -244.729          36.000    37324662.154   152838251.792        -190.194          38.000  
G25  23615150.120   124098455.748        2593.889          38.000    23615147.548    96700099.733        2021.163          32.000  
G23  21513856.819   113056073.878         488.919          40.000    21513852.233    88095666.859         380.846          40.000  
G24  23309796.165   122493781.7512      -3138.891          41.000    23309793.300    95449719.452       -2445.372          37.000  
C13  37970410.825   197721893.057         792.289          43.000    37970403.972   152891082.014         612.961          40.000  
C16  37849245.060   197090946.340          25.288          41.000    37849233.721   152403182.182          19.585          44.000  
C23  23468844.915   122208437.380         651.666          40.000                                                                  
C09  38605803.143   201030552.827         367.613          38.000    38605792.561   155449520.370         284.791          45.000  
C38  37351621.619   194499695.480         383.921          37.000                                                                  
C06  37444354.294   194982575.585         220.420          39.000    37444341.513   150772842.695         170.462          46.000  
R21  23796175.093   127338137.095       -3675.891          39.000    23796175.839    99040775.4542      -2857.408          27.000  
R10  23494326.500   125238002.073        4030.834          40.000    23494923.026                        3091.347          11.000  
R16  22947493.306                       -2372.327          31.000                                                                  
R22  22949243.249   122504618.665        -716.835          41.000    22949248.784    95281410.9882       -558.011          37.000  
G12  24096035.389                        1277.844          25.000    24096036.436                         998.580          23.000  
G18  23226551.567   122056357.275       -2837.462          40.000    23226547.862    95108853.054       -2210.735          35.000  
G10  23601086.916   124024542.1732       2621.296          39.000    23601085.780    96642500.350        2043.200          35.000  
S28  38657979.016   203149037.182         -96.289          42.000  
G28  24681978.911   129704674.5072       2806.810          33.000    24681979.569   101068590.832        2187.965          24.000  
S37  37836497.243   198832132.5853        -99.995          39.000  
C32  24970128.548   130026021.1112       1289.813          38.000                                                                  
C39  37311838.827   194292531.873        -132.232          43.000                                                                  
E29  25933136.172   136279538.953        -853.817          44.000    25933136.074   104421994.874        -653.510          39.000  
E26  26755151.813   140599277.537       -2838.741          38.000                                                                  
E27  27743237.361                         882.653          27.000    27743238.926   111710526.0661        676.684          36.000  
J07                                                                  37836498.439   154934131.332         -77.176          40.000  
R09                                                                  21150274.157    87843225.7963       1153.069          35.000  
> 2025 10 27 02 10 07.0040000  0 28                     
S29  38241140.835   200958550.5362        -99.982          44.000  
J03  37324700.133   196142622.3322       -244.168          42.000    37324708.406   152838442.071        -190.162          39.000  
J07  37836518.265   198832245.2431       -100.083          37.000    37836516.762   154934209.595         -78.175          43.000  
G25  23614656.584   124095861.754        2593.948          41.000    23614653.998    96698078.568        2021.116          33.000  
G23  21513764.031   113055585.846         488.328          38.000    21513759.391    88095286.594         380.075          39.000  
G24  23310392.778   122496921.527       -3139.865          40.000    23310390.746    95452166.011       -2446.477          40.000  
C13  37970258.726   197721101.060         791.995          44.000    37970250.871   152890469.583         612.499          43.000  
C16  37849240.203   197090921.779          24.594          42.000    37849229.315   152403163.230          19.097          44.000  
C23  23468719.802   122207786.769         650.554          40.000                                                                  
C09  38605732.217   201030185.037         367.727          39.000    38605721.996   155449235.976         284.407          43.000  
C38  37351548.012   194499312.455         383.110          39.000                                                                  
C06  37444312.112   194982355.751         219.701          41.000    37444299.367   150772672.745         170.165          46.000  
R09  21150001.094   112939825.7213       1479.958          43.000    21149999.440    87842079.2713       1151.529          38.000  
R21  23796861.298   127341814.160       -3677.189          42.000    23796860.193    99043635.2682      -2859.614          26.000  
R10  23493573.316   125233971.444        4031.145          35.000                                                                  
R16  22947941.499   122583784.0453      -2371.279          29.000                                                                  
R22  22949373.596   122505336.421        -717.207          36.000    22949389.741    95281969.320        -558.866          36.000  
G12  24095792.336   126624242.3993       1276.774          31.000    24095795.923    98668255.9741        996.156          28.000  
G18  23227091.692   122059195.824       -2838.599          43.000    23227087.980    95111064.844       -2212.113          36.000  
G10  23600586.381   124021920.7551       2621.251          42.000    23600587.072    96640458.131        2042.335          40.000  
S28  38657997.489   203149133.868         -96.333          45.000  
G28  24681445.630   129701872.1922       2807.193          38.000    24681447.933   101066404.171        2186.535          25.000  
S37  37836516.461   198832232.9712       -100.125          41.000  
C32  24969882.150   130024731.4742       1290.094          42.000                                                                  
C39  37311864.171   194292664.773        -132.634          41.000                                                                  
E29  25933303.111   136280392.861        -853.848          46.000    25933298.471   104422649.168        -654.044          44.000  
E26  26755691.558   140602116.242       -2838.585          35.000                                                                  
E27  27743068.450   145790808.5641        882.590          33.000    27743070.013   111709849.397         676.729          33.000  
> 2025 10 27 02 10 08.0040000  0 29                     
S29  38241160.085   200958651.5782       -101.709          45.000  
J03  37324750.953   196142867.3902       -245.278          43.000    37324754.760   152838632.930        -190.598          34.000  
J07  37836538.785   198832346.318        -101.853          32.000    37836536.117   154934288.229         -78.865          42.000  
G25  23614163.182   124093268.721        2592.597          36.000    23614162.173    96696057.994        2021.031          28.000  
G23  21513671.337   113055098.352         486.441          37.000    21513666.713    88094906.836         378.949          45.000  
G24  23310990.255   122500061.171       -3139.545          38.000    23310988.254    95454612.579       -2447.291          43.000  
C13  37970106.497   197720309.228         791.417          43.000    37970098.038   152889857.243         611.959          42.000  
C16  37849235.448   197090897.929          23.698          42.000    37849224.916   152403144.769          18.162          40.000  
C23  23468595.017   122207137.121         649.541          38.000                                                                  
C09  38605661.594   201029818.316         366.302          39.000    38605651.543   155448952.413         283.179          42.000  
C38  37351474.496   194498929.773         382.697          38.000                                                                  
C06  37444270.155   194982136.822         218.452          43.000    37444257.272   150772503.415         169.076          43.000  
R09  21149723.997   112938346.4262       1478.340          35.000    21149721.265    87840928.7502       1150.246          38.000  
R21  23797548.479   127345492.771       -3679.404          36.000    23797549.370    99046496.4102      -2861.016          31.000  
R10  23492816.701   125229942.327        4026.938          32.000                                                                  
R16  22948383.622   122586146.0433      -2373.720          27.000                                                                  
R22  22949513.271   122506059.8393       -718.357          36.000    22949529.456                        -556.817          29.000  
G12  24095544.257   126622964.8302       1277.686          39.000    24095548.340                         994.408          26.000  
G18  23227632.017   122062035.706       -2841.052          46.000    23227628.100    95113277.781       -2213.491          37.000  
G10  23600086.933   124019300.223        2619.427          37.000    23600087.920    96638416.210        2041.374          36.000  
S28  38658016.105   203149231.549         -98.275          45.000  
G28  24680913.075   129699067.2792       2803.762          39.000    24680913.026   101064218.464        2185.329          35.000  
S37  37836535.750   198832334.019        -101.109          35.000  
C32  24969634.223   130023442.1362       1289.197          38.000                                                                  
C39  37311889.637   194292798.260        -134.048          44.000                                                                  
G32  24412317.251   128287592.8992        976.598          33.000                                                                  
E29  25933463.836   136281246.693        -854.451          43.000    25933460.810   104423303.415        -654.447          46.000  
E26  26756232.091   140604956.055       -2840.200          43.000                                                                  
E27  27742902.218   145789926.145         881.380          28.000    27742901.346   111709173.099         676.383          37.000  
> 2025 10 27 02 10 09.0040000  0 27                     
S29  38241179.768   200958755.0302       -103.845          45.000  
J03  37324798.085   196143114.2832       -248.951          34.000    37324801.656   152838825.324        -193.186          36.000  
J07  37836560.414   198832466.4533       -103.264          32.000    37836555.701   154934368.460         -82.226          34.000  
G25  23613670.093                1       2566.178          26.000    23613668.771    96694038.781        2017.679          28.000  
G23  21513579.179   113054614.463         483.138          35.000    21513574.468    88094529.590         376.068          41.000  
G24  23311588.782                       -3143.262          31.000    23311586.461    95457061.903       -2451.169          40.000  
C13  37969955.057   197719520.726         787.553          40.000    37969947.189   152889247.626         608.487          42.000  
C16  37849231.449   197090876.773          20.089          43.000    37849221.016   152403128.397          15.140          45.000  
C23  23468470.817   122206490.283         645.075          39.000                                                                  
C09  38605591.691   201029453.991         363.224          43.000    38605581.529   155448670.706         280.825          43.000  
C38  37351404.232   194498563.4323        378.969          33.000                                                                  
C06  37444228.698   194981920.472         215.188          41.000    37444215.757   150772336.145         166.174          45.000  
R09  21149447.521   112936869.966        1475.315          37.000    21149446.140    87839779.9881       1147.135          33.000  
R21  23798236.589   127349173.243       -3681.037          49.000    23798233.109    99049340.0723      -2862.858          32.000  
R10  23492060.046   125225914.919        4025.961          29.000                                                                  
R22  22949650.132   122506790.3742       -724.371          42.000    22949662.772    95283111.5123       -563.583          36.000  
G12  24095306.631   126621690.8283       1273.963          35.000    24095301.919    98666232.4881        992.629          35.000  
G18  23228172.808   122064877.724       -2843.275          46.000    23228169.054    95115492.570       -2215.698          41.000  
G10  23599589.174   124016683.678        2615.800          35.000    23599591.095    96636377.245        2037.926          38.000  
S28  38658035.086   203149331.811        -100.745          44.000  
G28  24680378.534   129696264.8552       2801.804          41.000    24680382.813   101062034.826        2183.138          35.000  
C32  24969388.342   130022156.458        1284.314          35.000                                                                  
C39  37311915.734   194292934.618        -137.468          43.000                                                                  
G32  24412131.505   128286616.0533        975.154          29.000                                                                  
E29  25933627.398   136282103.855        -858.617          32.000    25933623.879   104423960.267        -658.344          42.000  
E26  26756773.064   140607797.638       -2842.766          42.000                                                                  
E27  27742726.610   145789046.370         879.337          36.000    27742732.776   111708498.712         671.516          32.000  
> 2025 10 27 02 10 10.0040000  0 27                     
S29  38241199.203   200958856.8122       -100.769          44.000  
J03  37324845.169   196143359.8662       -243.855          37.000    37324848.185   152839016.689        -190.911          39.000  
J07  37836579.817   198832568.3292        -99.977          36.000    37836574.825   154934447.626         -78.322          40.000  
G25  23613174.364   124088068.7003       2593.199          40.000    23613171.599    96691990.1571       2020.366          31.000  
G23  21513486.941   113054129.868         486.110          44.000    21513482.117    88094152.001         378.827          45.000  
G24  23312186.738   122506367.3363      -3139.997          32.000    23312184.450    95459510.762       -2446.927          37.000  
C13  37969803.515   197718731.061         791.685          39.000    37969795.653   152888636.939         612.376          39.000  
C16  37849227.348   197090854.323          23.589          40.000    37849216.811   152403111.072          18.708          42.000  
C23  23468346.308   122205842.569         648.839          42.000                                                                  
C09  38605521.554   201029088.153         367.216          42.000    38605511.367   155448387.722         284.214          49.000  
C38  37351329.011   194498182.6292        382.656          42.000                                                                  
C06  37444186.825   194981702.595         219.283          43.000    37444174.074   150772167.730         169.438          45.000  
R09  21149171.096   112935393.358        1478.147          39.000    21149168.790    87838631.426        1148.511          28.000  
R21  23798924.120   127352851.946       -3677.747          47.000    23798921.796    99052201.1512      -2860.034          36.000  
R10  23491302.130   125221859.3203       4029.782          38.000                                                                  
R22  22949782.952   122507512.3452       -722.012          37.000    22949795.733    95283672.7572       -560.227          28.000  
G12  24095063.458   126620415.1072       1275.907          27.000    24095062.412                         995.635          25.000  
G18  23228713.291   122067718.538       -2839.515          47.000    23228709.568    95117706.068       -2212.712          40.000  
G10  23599090.998   124014065.868        2619.458          26.000    23599091.827                        2042.248          28.000  
S28  38658053.745   203149430.147         -97.246          47.000  
G28  24679845.509   129693460.7132       2805.136          40.000    24679846.914   101059849.766        2185.769          41.000  
C32  24969142.666   130020869.281        1288.354          32.000                                                                  
C39  37311941.669   194293069.681        -133.646          43.000                                                                  
G32  24411947.815   128285639.5512        978.809          32.000                                                                  
E29  25933789.972   136282960.173        -853.606          43.000    25933787.416   104424616.283        -654.305          44.000  
E26  26757313.542   140610637.846       -2837.965          36.000                                                                  
E27  27742568.181                         882.189          23.000    27742565.736   111707815.2431        676.056          32.000  
> 2025 10 27 02 10 11.0040000  0 28                     
S29  38241218.360   200958957.0782       -101.166          43.000  
J03  37324891.730   196143603.7642       -243.822          38.000    37324894.587   152839206.785        -189.314          30.000  
J07  37836600.810   198832668.7002       -101.342          36.000    37836593.888   154934525.937         -79.554          30.000  
G25  23612680.667   124085474.2383       2592.915          36.000    23612680.170    96689969.638        2018.852          26.000  
G23  21513394.703   113053644.900         484.307          42.000    21513389.783    88093774.095         376.844          34.000  
G24  23312784.772   122509509.6072      -3145.025          32.000    23312782.240    95461959.173       -2449.520          29.000  
C13  37969651.634   197717940.600         790.800          35.000    37969643.870   152888025.643         611.853          30.000  
C16  37849222.704   197090830.751          22.648          40.000    37849212.521   152403092.850          17.358          40.000  
C23  23468221.874   122205194.473         647.063          33.000                                                                  
C09  38605451.009   201028720.735         366.929          37.000    38605440.960   155448103.808         283.250          42.000  
C38  37351255.117   194497801.0282        380.886          39.000                                                                  
C06  37444144.835   194981483.664         218.334          43.000    37444132.042   150771998.397         168.845          46.000  
R09  21148894.552   112933916.240        1475.917          37.000                                                                  
R21  23799611.399   127356528.853       -3678.048          41.000    23799609.151    99055060.6321      -2861.112          33.000  
R10  23490547.911   125217838.8772       4031.897          30.000                                                                  
R16  22949710.997   122593236.6433      -2375.988          26.000                                                                  
R22  22949920.108   122508234.226        -722.236          38.000    22949931.993                        -562.964          29.000  
G12  24094821.322   126619139.8333       1275.879          32.000    24094820.414                         999.408          24.000  
G18  23229253.682   122070558.181       -2840.508          46.000    23229249.529    95119918.693       -2212.984          37.000  
G10  23598591.667                1       2617.731          26.000    23598591.045    96632284.7811       2039.662          30.000  
S28  38658072.154   203149527.053         -97.716          45.000  
G28  24679311.924   129690655.4472       2804.552          38.000    24679312.429   101057663.916        2185.117          34.000  
C32  24968895.139   130019581.343        1288.019          32.000                                                                  
C39  37311967.320   194293203.703        -134.732          42.000                                                                  
G32  24411760.307   128284662.4872        976.785          33.000                                                                  
E29  25933952.786   136283814.781        -856.936          33.000    25933949.919   104425270.974        -655.141          31.000  
E26  26757853.323   140613476.706       -2839.597          38.000                                                                  
E27  27742395.345                         879.470          29.000    27742400.638   111707140.026         675.326          37.000  
> 2025 10 27 02 10 12.0040000  0 27                     
S29  38241237.431   200959057.1892        -99.872          43.000  
J03  37324938.241   196143847.6562       -243.296          39.000    37324940.821   152839396.797        -188.328          37.000  
J07  37836618.839   198832769.0382       -100.384          34.000    37836612.932   154934603.963         -77.570          39.000  
G25  23612190.351   124082896.9892       2592.635          40.000    23612188.569    96687964.5521       2021.589          31.000  
G23  21513302.606   113053160.915         483.567          38.000    21513297.742    88093396.933         377.189          38.000  
G24  23313384.257                       -3144.801          30.000    23313379.736                       -2447.170          29.000  
C13  37969500.015   197717151.203         789.285          32.000    37969492.900   152887413.8373        610.572          34.000  
C16  37849218.038   197090807.547          23.881          40.000    37849208.235   152403074.881          18.692          43.000  
C23  23468097.365   122204546.905         647.028          36.000                                                                  
C09  38605380.417   201028353.371         369.213          37.000    38605370.365   155447819.654         284.378          38.000  
C38  37351182.940   194497420.0312        382.267          41.000                                                                  
C06  37444102.905   194981264.850         219.318          39.000    37444090.035   150771829.209         169.519          42.000  
R09  21148618.215   112932439.961        1476.481          41.000    21148613.370    87836322.4323       1148.405          32.000  
R21  23800298.455   127360205.411       -3676.309          44.000    23800297.074    99057920.110       -2859.163          31.000  
R10  23489791.376                        4030.674          30.000                                                                  
R22  22950054.184   122508956.783        -721.766          38.000    22950064.830    95284791.1853       -561.957          29.000  
G12  24094581.509   126617879.6903       1276.514          35.000    24094575.471                         991.923          24.000  
G18  23229793.873   122073397.527       -2839.536          43.000    23229788.902                       -2212.175          31.000  
G10  23598100.944                        2621.202          28.000    23598096.066    96630244.916        2042.463          29.000  
S28  38658090.460   203149623.704         -95.837          46.000  
G28  24678778.054   129687850.0432       2805.542          45.000    24678778.665   101055477.734        2185.847          38.000  
C32  24968648.265   130018303.2283       1285.364          30.000                                                                  
C39  37311993.131   194293338.266        -133.468          42.000                                                                  
G32  24411576.796   128283685.9472        977.457          40.000                                                                  
E29  25934116.038                        -855.105          23.000    25934112.199   104425926.887        -654.238          30.000  
E26  26758393.496   140616315.173       -2838.035          36.000                                                                  
E27  27742227.276   145786388.0231        879.061          25.000    27742230.696   111706465.641         674.996          35.000  
> 2025 10 27 02 10 13.0040000  0 27                     
S29  38241256.658   200959158.0742        -99.603          40.000  
J03  37324985.050   196144092.2901       -243.386          33.000    37324987.262   152839587.846        -189.453          29.000  
J07  37836634.978   198832857.9953       -100.585          29.000    37836632.260   154934683.114         -78.710          32.000  
G25  23611699.823   124080319.1772       2593.627          33.000    23611695.882    96685944.960        2020.627          31.000  
G23  21513210.802   113052678.029         482.325          37.000    21513205.752    88093020.728         375.723          36.000  
C13  37969349.492   197716366.1373        790.847          32.000    37969340.659   152886803.6212        613.595          30.000  
C16  37849213.766   197090785.269          23.098          39.000    37849204.051   152403057.652          18.197          43.000  
C23  23467973.272   122203901.202         645.119          33.000                                                                  
C09  38605309.966   201027986.936         367.104          37.000    38605299.976   155447536.455         284.204          38.000  
C38  37351110.157   194497031.8573        380.554          39.000                                                                  
C06  37444061.083   194981047.281         218.654          26.000    37444048.235   150771660.858         169.399          39.000  
R09  21148342.700   112930969.5853       1474.170          33.000    21148335.911                        1146.702          32.000  
R21  23800985.768   127363883.430       -3675.549          43.000    23800985.719    99060780.621       -2859.335          25.000  
R10  23489041.757                        4030.853          30.000                                                                  
R22  22950189.570   122509680.993        -722.883          46.000    22950198.064    95285334.2153       -562.208          38.000  
G12  24094343.570   126616629.3452       1273.767          34.000    24094336.254                         992.991          24.000  
G18  23230334.309   122076238.406       -2838.920          35.000    23230333.496    95124331.9851      -2212.670          43.000  
G10  23597602.698                        2619.693          31.000    23597597.460                        2040.066          23.000  
S28  38658108.950   203149721.193         -96.078          45.000  
G28  24678244.382   129685045.750        2805.365          42.000    24678244.951   101053292.717        2185.897          33.000  
C32  24968400.156                        1288.262          29.000                                                                  
C39  37312019.118   194293473.699        -133.198          39.000                                                                  
G32  24411389.759   128282709.5262        977.685          41.000                                                                  
E29  25934281.423   136285568.2291       -857.573          29.000    25934276.053   104426582.0021       -653.837          30.000  
E26  26758933.596   140619154.918       -2835.307          28.000                                                                  
E27  27742067.227                         879.213          25.000    27742064.421   111705797.2701        675.172          28.000  
G24                                                                  23313979.610                       -2450.862          27.000  
> 2025 10 27 02 10 14.0040000  0 28                     
S29  38241275.928   200959258.954        -102.838          40.000  
J03  37325031.963   196144337.521        -248.271          38.000    37325034.032   152839778.927        -190.754          29.000  
J07  37836654.438   198832960.2652       -102.850          34.000    37836651.441   154934762.086         -81.167          38.000  
G25  23611205.607   124077727.6292       2588.408          36.000    23611203.636    96683925.445        2017.469          32.000  
G23  21513119.121   113052195.668         480.083          39.000    21513114.015    88092644.886         373.329          37.000  
G24  23314580.473   122518946.7013      -3146.627          36.000    23314579.039    95469302.9291      -2452.850          27.000  
C13  37969197.204   197715576.8412        786.846          35.000    37969191.020   152886193.3792        609.357          35.000  
C16  37849209.615   197090762.862          19.737          40.000    37849199.883   152403040.341          15.380          38.000  
C23  23467849.193   122203255.447         643.217          40.000                                                                  
C09  38605239.646   201027620.690         364.020          38.000    38605229.849   155447253.330         281.292          43.000  
C38  37351035.362   194496651.7002        377.089          40.000                                                                  
C06  37444019.167   194980829.193         215.942          34.000    37444006.369   150771492.420         166.763          41.000  
R09  21148064.739   112929495.1122       1476.576          20.000    21148060.480    87834023.4663       1143.876          37.000  
R21  23801673.148   127367561.237       -3680.437          46.000    23801671.317    99063641.250       -2863.330          37.000  
R10  23488286.880   125205781.5873       4024.406          33.000                                                                  
R22  22950325.850   122510405.488        -726.914          43.000    22950330.102    95285897.7312       -565.669          37.000  
G12  24094101.069                        1271.049          33.000    24094097.418                         998.850          22.000  
G18  23230874.975   122079079.469       -2843.865          42.000    23230875.390    95126545.989       -2215.455          40.000  
G10  23597104.874   124003622.6183       2611.725          27.000    23597098.452    96626172.8481       2039.735          25.000  
S28  38658127.396   203149818.536         -99.260          39.000  
G28  24677710.905   129682241.867        2801.272          44.000    24677711.343   101051107.927        2182.294          35.000  
C32  24968151.745   130015717.6653       1284.497          30.000                                                                  
C39  37312044.981   194293608.951        -137.430          42.000                                                                  
G32  24411205.381   128281732.7741        972.306          32.000                                                                  
E29  25934439.178                        -858.397          29.000    25934436.532                        -659.987          21.000  
E26  26759489.799   140622067.1161      -2843.698          41.000                                                                  
E27  27741899.400   145784664.3301        876.288          32.000    27741896.798   111705123.996         670.223          33.000  
J02  38506093.493   202350886.4932        -75.060          33.000                                                                  
> 2025 10 27 02 10 15.0040000  0 29                     
S29  38241295.390   200959360.868        -100.677          37.000  
J03  37325079.023   196144584.013        -244.337          38.000    37325080.698                        -190.875          29.000  
J07  37836673.095   198833058.4733       -100.924          34.000    37836671.031   154934842.0341        -78.703          39.000  
G25  23610715.013   124075137.3952       2591.499          38.000    23610714.476    96681907.250        2019.176          35.000  
G23  21513027.750   113051715.167         482.226          43.000    21513022.583    88092270.543         375.856          42.000  
G24  23315179.972   122522093.4512      -3144.105          38.000    23315179.217    95471760.878       -2450.038          26.000  
C13  37969045.590   197714789.164         789.371          38.000    37969038.736   152885583.8961        610.313          36.000  
C16  37849205.602   197090741.857          22.505          41.000    37849195.989   152403024.057          17.620          40.000  
C23  23467725.799   122202611.714         645.856          41.000                                                                  
C09  38605169.443   201027255.728         365.626          34.000    38605159.748   155446971.046         282.969          37.000  
C38  37350964.816   194496272.5271        380.742          43.000                                                                  
C06  37443977.479   194980612.737         218.153          36.000    37443964.837   150771325.043         168.551          38.000  
R09  21147792.632   112928031.9613       1474.001          36.000    21147784.649    87832880.9873       1145.950          34.000  
R21  23802360.761   127371240.281       -3678.819          41.000    23802358.837    99066502.738       -2860.570          37.000  
R10  23487534.197   125201773.7323       4028.481          36.000                                                                  
R16  22951507.714   122602833.9162      -2378.421          32.000                                                                  
R22  22950461.313   122511131.804        -725.247          43.000    22950467.158    95286462.2071       -563.739          33.000  
G12  24093861.858                        1272.205          29.000    24093856.545                         993.569          25.000  
G18  23231415.894   122081922.081       -2841.538          44.000    23231414.716    95128758.9051      -2214.698          38.000  
G10  23596604.924   124000995.6473       2617.531          35.000    23596602.551                        2027.407          23.000  
S28  38658146.111   203149916.790         -96.927          35.000  
G28  24677177.695   129679439.297        2802.685          40.000    24677177.961   101048917.9641       2184.891          40.000  
C32  24967905.712                        1278.533          31.000                                                                  
C39  37312071.130   194293745.764        -134.979          41.000                                                                  
G32  24411017.482   128280757.690         977.228          44.000                                                                  
E29  25934607.448   136287281.4601       -858.849          33.000    25934603.208                        -657.531          29.000  
E26  26760027.461   140624908.319       -2840.456          39.000                                                                  
E27  27741730.144   145783775.5031        879.499          33.000    27741729.403   111704452.130         674.055          34.000  
J02  38506110.305   202350960.7812        -73.951          24.000                                                                  
> 2025 10 27 02 10 16.0040000  0 28                     
S29  38241314.749   200959463.111        -102.887          39.000  
J03  37325126.117   196144830.801        -248.880          44.000    37325126.829   152840154.3281       -193.971          38.000  
J07  37836697.049   198833161.0992       -104.177          34.000    37836690.698   154934922.087         -83.153          35.000  
G25  23610221.639   124072547.4652       2587.401          40.000    23610224.069    96679889.080        2016.048          31.000  
G23  21512936.443   113051235.169         478.090          40.000    21512931.339    88091896.424         371.919          31.000  
G24  23315779.713                       -3147.378          30.000    23315774.890                       -2455.372          25.000  
C13  37968894.792   197714001.554         785.380          33.000    37968888.480   152884974.759         607.407          35.000  
C16  37849201.666   197090721.301          18.588          38.000    37849192.280   152403008.277          14.094          39.000  
C23  23467602.339   122201968.662         640.634          28.000                                                                  
C09  38605099.428   201026891.129         362.782          34.000    38605089.712   155446689.110         280.444          39.000  
C38  37350888.901   194495894.050         375.847          36.000                                                                  
C06  37443933.533   194980387.7433        213.153          29.000    37443923.448   150771157.973         165.354          43.000  
R09  21147520.755   112926561.1752       1469.056          33.000    21147508.106                        1142.968          28.000  
R21  23803048.540   127374919.739       -3681.082          47.000    23803045.991    99069364.635       -2863.057          34.000  
R10  23486784.007   125197775.0032       4024.100          35.000                                                                  
R16  22951954.934   122605223.1502      -2381.414          30.000                                                                  
R22  22950597.653   122511859.286        -729.346          40.000    22950602.266    95287027.866        -567.379          37.000  
G12  24093617.014   126612811.3533       1269.369          29.000    24093609.932    98659304.8641        991.181          27.000  
G18  23231957.141   122084765.450       -2845.195          41.000    23231951.814    95130974.470       -2216.453          30.000  
G10  23596105.986   123998380.1712       2613.798          38.000    23596106.642                        2038.761          25.000  
S28  38658164.820   203150015.659         -99.120          39.000  
G28  24676644.779                        2803.215          29.000    24676644.609   101046734.814        2182.498          37.000  
C32  24967656.401   130013137.9513       1282.300          34.000                                                                  
C39  37312097.307   194293882.817        -138.959          36.000                                                                  
G32  24410832.112   128279782.795         972.072          39.000                                                                  
E29  25934771.421                        -853.244          28.000    25934767.625   104428561.8671       -658.242          34.000  
E26  26760565.926   140627750.400       -2843.796          35.000                                                                  
E27  27741567.312                         874.114          29.000    27741563.699                         658.260          25.000  
> 2025 10 27 02 10 17.0040000  0 29                     
S29  38241335.088   200959571.5423       -100.226          38.000  
J03  37325174.035   196145081.847        -246.087          42.000    37325177.250   152840360.8551       -190.645          37.000  
J07  37836718.534   198833268.0402       -101.060          37.000    37836711.138   154935005.316         -78.898          41.000  
G25  23609728.283                        2589.323          30.000    23609729.370    96677874.593        2017.991          39.000  
G23  21512846.066   113050759.666         480.960          41.000    21512840.783    88091525.996         374.492          42.000  
G24  23316382.647                       -3149.261          34.000    23316374.707                       -2458.068          31.000  
C13  37968744.615   197713217.771         788.819          38.000    37968738.607   152884368.772         609.775          37.000  
C16  37849198.450   197090704.859          22.387          38.000    37849189.216   152402995.493          17.078          43.000  
C23  23467479.710   122201330.212         643.722          42.000                                                                  
C09  38605030.311   201026530.863         366.098          35.000    38605020.525   155446410.316         283.220          42.000  
C38  37350818.943   194495519.668         379.974          42.000                                                                  
C06  37443896.339                         218.783          34.000    37443882.786   150770994.044         167.785          42.000  
R09  21147243.905   112925102.0363       1471.555          40.000    21147236.825    87830605.9693       1143.828          36.000  
R21  23803737.100   127378603.947       -3679.733          37.000    23803734.595    99072230.044       -2861.368          30.000  
R10  23486033.152   125193772.5313       4029.116          34.000                                                                  
R22  22950734.868   122512591.462        -727.419          44.000    22950738.761    95287597.282        -566.256          37.000  
G12  24093379.565                        1272.832          38.000    24093366.921                         992.087          26.000  
G18  23232499.117   122087613.119       -2842.397          42.000    23232495.769    95133193.454       -2214.431          39.000  
G10  23595611.446   123995769.2462       2610.245          26.000    23595611.085                        2034.941          25.000  
S28  38658184.366   203150129.5053        -97.419          40.000  
G28  24676112.024   129673843.5673       2799.149          30.000    24676112.136   101044554.776        2183.887          33.000  
C32  24967413.641   130011874.3723       1288.513          34.000                                                                  
C39  37312124.568   194294024.127        -135.200          41.000                                                                  
R23  24829099.891                        1680.068          17.000                                                                  
G32  24410647.548   128278811.832         976.203          40.000                                                                  
E29  25934936.150                        -860.681          32.000    25934931.187                        -657.331          30.000  
E26  26761136.464                       -2847.918          31.000                                                                  
E27  27741409.497                         871.890          27.000    27741399.665   111703120.1601        670.465          35.000  
J02  38506138.556   202351123.0033        -71.551          37.000                                                                  
> 2025 10 27 02 10 18.0040000  0 31                     
S29  38241354.359   200959672.8052        -95.117          36.000  
J03  37325220.883                        -238.808          30.000    37325221.424   152840552.755        -186.701          34.000  
J07  37836735.234   198833384.7883        -95.659          35.000    37836730.372   154935084.662         -73.657          37.000  
G25  23609234.898   124067366.3633       2595.362          37.000    23609236.230    96675875.5441       2022.379          31.000  
G23  21512754.550   113050279.023         488.213          37.000    21512749.469    88091151.588         379.896          34.000  
G24  23316981.593   122531564.9523      -3140.757          29.000    23316973.623                       -2457.062          23.000  
C13  37968591.940   197712428.466         796.397          33.000    37968586.683   152883764.3133        616.784          32.000  
C16  37849194.183                          26.650          36.000    37849185.258   152402978.928          21.943          36.000  
C23  23467356.248   122200686.969         651.903          38.000                                                                  
C09  38604960.118                         371.107          34.000    38604950.446   155446127.989         287.913          38.000  
C38  37350746.417   194495139.823         387.897          38.000                                                                  
C06  37443855.685   194979958.8403        223.562          37.000    37443841.074   150770826.418         172.453          39.000  
R09  21146966.289   112923631.7282       1476.376          41.000    21146964.443    87829462.5102       1147.453          33.000  
R21  23804424.405   127382282.666       -3673.742          34.000    23804422.377                1      -2858.779          23.000  
R10  23485272.154                        4031.288          23.000                                                                  
R22  22950871.057   122513319.145        -722.611          43.000    22950874.954    95288163.326        -561.528          37.000  
G12  24093131.230                        1278.332          33.000    24093123.061    98657310.6591        993.674          27.000  
G18  23233040.161   122090456.341       -2837.290          39.000    23233039.946    95135414.6281      -2214.503          25.000  
G10  23595109.645   123993137.6803       2622.136          26.000    23595113.209    96618044.0571       2042.292          27.000  
S28  38658203.034   203150227.5132        -92.546          36.000  
G28  24675577.671                        2803.394          30.000    24675579.789   101042373.9991       2187.531          27.000  
S37  37836730.418   198833359.4823        -96.016          38.000  
C32  24967164.854   130010578.5162       1293.304          33.000                                                                  
C39  37312150.669   194294160.045        -129.645          38.000                                                                  
R23  24828784.019                        1680.068          18.000                                                                  
G32  24410461.767   128277835.469         982.476          34.000                                                                  
E29  25935095.219                        -847.847          31.000    25935095.057                        -649.909          31.000  
E26  26761630.974                       -2834.784          36.000                                                                  
E27  27741224.794   145781119.9381        885.642          33.000    27741231.730                         676.777          32.000  
J02  38506150.020                         -67.655          26.000                                                                  
G15  25305095.173                       -2173.977          24.000                                                                  
> 2025 10 27 02 10 19.0040000  0 31                     
S29  38241372.873   200959770.7792        -96.375          35.000  
J03  37325267.245   196145602.6001       -240.979          40.000    37325268.382                        -193.969          29.000  
J07  37836755.373   198833482.8852        -95.906          34.000    37836749.074   154935160.946         -74.217          36.000  
G25  23608742.229   124064772.0291       2596.377          40.000    23608741.038                        2017.725          25.000  
G23  21512662.600   113049795.498         485.090          33.000    21512657.604    88090774.829         378.252          33.000  
G24  23317575.707   122534687.0822      -3140.716          29.000    23317571.081                       -2442.039          23.000  
C13  37968439.955   197711635.989         793.080          33.000    37968434.444                         614.222          31.000  
C16  37849189.553   197090658.6641         26.336          36.000    37849180.675   152402959.780          21.861          36.000  
C23  23467232.145   122200040.696         648.392          40.000                                                                  
C09  38604889.401   201025797.2561        369.272          34.000    38604879.735   155445843.027         287.872          40.000  
C38  37350672.289   194494756.615         385.231          34.000                                                                  
C06  37443811.557   194979738.8942        221.195          33.000    37443798.799   150770656.146         172.764          39.000  
R09  21146690.628   112922147.4423       1475.881          42.000    21146689.068    87828330.4533       1148.644          33.000  
R21  23805111.413   127385959.7063      -3672.862          41.000    23805111.128                       -2857.123          31.000  
R10  23484509.646   125185651.3873       4033.478          39.000                                                                  
R16  22953292.692                       -2379.991          24.000                                                                  
R22  22951006.658   122514044.060        -722.224          36.000    22951010.620    95288727.286        -563.637          31.000  
G12  24092877.089   126608923.5123       1276.459          33.000    24092875.230                         994.565          26.000  
G18  23233580.331   122093296.349       -2837.044          45.000    23233579.418    95137623.7231      -2211.649          41.000  
G10  23594609.543   123990517.509        2621.447          30.000    23594611.614                        2042.372          26.000  
S28  38658221.018   203150322.0372        -91.553          38.000  
G28  24675042.863                        2803.369          38.000    24675045.230   101040187.712        2186.255          37.000  
S37  37836749.088   198833457.6112        -95.694          35.000  
C32  24966918.202   130009287.7992       1292.194          30.000                                                                  
C39  37312176.134   194294292.3863       -129.630          39.000                                                                  
G32  24410275.276   128276855.912         982.552          39.000                                                                  
E29  25935252.786   136290672.4221       -852.109          30.000    25935256.906                        -653.155          30.000  
E26  26762180.065   140636204.4861      -2834.818          40.000                                                                  
E27  27741057.109   145780239.558         881.800          30.000    27741061.770   111701760.0461        676.044          26.000  
J02  38506160.034   202351236.4403        -67.306          32.000                                                                  
G15  25305502.465                       -2173.977          21.000                                                                  
> 2025 10 27 02 10 20.0040000  0 30                     
S29  38241391.150   200959866.7402        -96.448          45.000  
J03  37325313.226   196145843.382        -240.260          43.000    37325316.120   152840929.5941       -187.739          39.000  
J07  37836773.202   198833579.1542        -95.309          38.000    37836767.533   154935236.107         -73.619          39.000  
G25  23608249.363   124062176.880        2596.134          42.000    23608245.916    96671819.7371       2023.344          38.000  
G23  21512570.520   113049310.947         484.904          38.000    21512565.383    88090397.261         377.928          42.000  
G24  23318173.651   122537828.3162      -3139.989          33.000    23318170.553    95484010.3581      -2447.223          30.000  
C13  37968287.548   197710841.940         794.087          38.000    37968281.509   152882536.0183        614.613          37.000  
C16  37849184.239   197090632.299          25.596          45.000    37849175.733   152402939.333          21.214          39.000  
C23  23467107.654   122199393.222         647.599          45.000                                                                  
C09  38604818.156   201025426.968         369.339          41.000    38604808.663   155445556.595         286.898          37.000  
C38  37350598.588   194494372.091         385.132          40.000                                                                  
C06  37443766.714   194979517.0622        220.907          43.000    37443756.242   150770484.548         171.241          38.000  
R09  21146412.413   112920673.2262       1474.298          46.000    21146413.738    87827184.0122       1146.908          37.000  
R21  23805797.899   127389633.5232      -3675.858          46.000    23805797.542    99080824.2463      -2857.958          39.000  
R10  23483750.630   125181618.7222       4031.981          40.000                                                                  
R22  22951146.461   122514777.8903       -722.087          37.000    22951146.285    95289290.722        -564.082          30.000  
G12  24092636.747   126607647.0832       1277.217          40.000    24092632.748    98655303.2761        993.867          35.000  
G18  23234120.411   122096134.723       -2838.381          47.000    23234119.505    95139835.587       -2212.238          42.000  
G10  23594114.453   123987908.1173       2620.587          41.000    23594110.041    96613936.1071       2041.876          30.000  
S28  38658238.722   203150414.5922        -93.546          43.000  
G28  24674510.666   129665428.0923       2805.063          48.000    24674511.824   101038000.722        2185.844          43.000  
S37  37836767.326   198833553.3643        -95.112          42.000  
C32  24966670.219                        1292.857          37.000                                                                  
C39  37312201.119   194294423.6202       -131.319          42.000                                                                  
G32  24410088.707   128275875.023         980.280          38.000                                                                  
E29  25935419.349   136291548.4981       -850.583          36.000    25935417.590   104431184.3701       -652.070          34.000  
E26  26762719.248   140639040.558       -2835.849          44.000                                                                  
E27  27740884.754                         884.050          30.000    27740896.152   111701093.2261        677.583          40.000  
J02  38506170.743   202351303.7852        -66.359          41.000                                                                  
E12                                                                  27786862.839                        1337.293          24.000  
> 2025 10 27 02 10 21.0040000  0 29                     
S29  38241409.447   200959963.2272        -96.631          33.000  
J03  37325359.243   196146085.176        -244.285          40.000    37325359.073   152841105.4631       -188.606          30.000  
J07  37836790.132   198833676.0492        -98.075          33.000    37836785.984   154935311.574         -76.277          31.000  
G25  23607749.412   124059582.114        2597.838          29.000    23607751.015    96669798.106        2021.294          31.000  
G23  21512478.339   113048826.950         482.173          39.000    21512473.255    88090019.890         376.266          31.000  
G24  23318770.515   122540969.4552      -3142.060          34.000    23318764.926                       -2447.408          29.000  
C13  37968134.929   197710047.751         792.754          39.000    37968128.358   152881921.0461        614.360          33.000  
C16  37849179.004   197090606.386          25.096          40.000    37849170.780   152402919.151          18.283          27.000  
C23  23466983.332   122198746.738         644.260          39.000                                                                  
C09  38604747.082   201025057.477         367.289          31.000    38604737.780   155445270.856         284.725          35.000  
C38  37350524.516   194493987.690         383.646          42.000                                                                  
C06  37443725.030   194979295.710         220.365          39.000    37443713.822   150770313.559         169.364          36.000  
R09  21146133.469   112919200.288        1471.936          41.000    21146135.996    87826038.264        1145.646          30.000  
R21  23806484.632   127393308.496       -3679.687          34.000    23806485.840    99083681.7441      -2859.295          25.000  
R10  23482988.672   125177587.007        4029.673          33.000                                                                  
R22  22951291.909   122515501.9281       -725.424          29.000                                                                  
G12  24092390.289                        1275.670          27.000    24092392.454    98654309.120         993.968          26.000  
G18  23234660.668   122098973.743       -2836.637          29.000    23234655.274    95142048.079       -2214.182          33.000  
G10  23593613.342   123985286.5042       2618.777          37.000    23593612.418    96611892.942        2043.135          32.000  
S28  38658256.399   203150507.4242        -94.644          35.000  
G28  24673976.547   129662621.9872       2804.296          34.000    24673979.958   101035814.455        2186.886          27.000  
S37  37836785.773   198833650.2982        -98.687          37.000  
C32  24966418.646   130006693.0543       1289.960          37.000                                                                  
C39  37312226.345   194294554.6561       -132.009          40.000                                                                  
G32  24409902.062   128274893.622         979.495          32.000                                                                  
E29  25935577.975   136292399.573        -852.715          39.000    25935579.533   104431836.283        -651.664          34.000  
E26  26763256.462   140641877.697       -2837.881          40.000                                                                  
E27  27740723.925   145778487.5781        880.936          35.000    27740726.749   111700418.061         674.786          31.000  
J02  38506181.687   202351371.8372        -69.614          41.000                                                                  
> 2025 10 27 02 10 22.0040000  0 29                     
S29  38241427.954   200960060.6032        -96.918          44.000  
J03  37325405.430   196146327.628        -242.579          40.000    37325411.037   152841294.686        -188.595          41.000  
J07  37836808.437   198833773.8322        -97.732          39.000    37836804.532   154935387.654         -75.424          40.000  
G25  23607256.538   124056970.0243       2593.933          40.000    23607258.304    96667777.296        2020.956          39.000  
G23  21512386.512   113048344.131         483.108          45.000    21512381.473    88089643.701         376.906          42.000  
G24  23319366.813   122544111.3242      -3140.697          31.000    23319365.137    95488901.2131      -2449.032          23.000  
C13  37967982.526   197709254.525         793.156          42.000    37967976.567   152881307.9243        613.552          40.000  
C16  37849174.377   197090581.670          25.352          42.000    37849164.429   152402901.0923         19.925          37.000  
C23  23466859.308   122198101.455         645.798          43.000                                                                  
C09  38604676.214   201024688.845         369.203          39.000    38604667.039   155444985.901         285.374          43.000  
C38  37350450.706   194493604.148         383.728          46.000                                                                  
C06  37443682.744   194979075.604         220.758          41.000    37443671.557   150770143.268         170.371          40.000  
R09  21145860.128   112917728.975        1471.777          43.000    21145859.592    87824893.906        1144.538          39.000  
R21  23807171.622   127396984.071       -3674.899          45.000    23807172.072    99086540.278       -2857.450          35.000  
R10  23482228.190   125173556.200        4029.981          34.000                                                                  
R22  22951422.984   122516254.5213       -727.877          39.000    22951417.138    95290395.2223       -566.292          29.000  
G12  24092156.801   126605138.2673       1275.609          33.000    24092153.370                         993.887          25.000  
G18  23235201.245   122101806.2223      -2841.367          43.000    23235197.187    95144261.455       -2214.715          42.000  
G10  23593115.137   123982665.9642       2620.553          43.000    23593113.103    96609853.9841       2042.804          27.000  
S28  38658274.277   203150601.4402        -93.354          42.000  
G28  24673442.953   129659817.4242       2805.133          45.000    24673443.256   101033628.753        2185.487          42.000  
S37  37836804.321   198833748.0592        -97.459          42.000  
C32  24966170.767   130005401.4962       1291.931          44.000                                                                  
C39  37312251.853   194294687.437        -132.156          43.000                                                                  
G32  24409719.435   128273940.5923        980.016          39.000                                                                  
E29  25935743.731   136293251.577        -852.130          43.000    25935741.692   104432484.2691       -651.303          41.000  
E26  26763801.891   140644715.603       -2837.653          43.000                                                                  
E27  27740557.209                         880.250          25.000    27740560.591   111699741.6241        674.366          32.000  
J02  38506196.889   202351440.4562        -68.658          44.000                                                                  
> 2025 10 27 02 10 23.0040000  0 28                     
S29  38241447.071   200960160.5202        -99.286          41.000  
J03  37325452.247   196146572.784        -244.341          42.000    37325451.545   152841485.615        -190.441          38.000  
J07  37836827.538   198833873.9432        -99.436          35.000    37836823.567   154935465.740         -76.958          41.000  
G25  23606764.057   124054379.2642       2592.091          41.000    23606765.468    96665758.566        2019.198          41.000  
G23  21512295.162   113047864.154         480.458          45.000    21512290.311    88089269.679         374.327          42.000  
C13  37967830.549   197708463.517         791.627          42.000    37967822.949   152880696.3282        612.171          36.000  
C16  37849170.366   197090559.429          23.047          42.000    37849160.880   152402883.9562         17.635          38.000  
C23  23466735.909   122197459.207         642.801          47.000                                                                  
C09  38604605.864   201024323.061         366.308          41.000    38604596.773   155444703.023         283.632          40.000  
C38  37350377.316   194493222.967         382.219          46.000                                                                  
C06  37443641.157   194978858.083         217.904          39.000    37443629.738   150769975.041         168.606          42.000  
R09  21145585.305   112916260.823        1468.281          46.000    21145584.992    87823751.982        1142.972          41.000  
R21  23807859.175   127400662.1221      -3677.366          46.000    23807863.570                1      -2860.934          31.000  
R10  23481474.226   125169528.112        4030.304          34.000                                                                  
R22  22951566.210   122517019.0522       -726.470          26.000                                                                  
G12  24091907.882   126603830.2593       1271.701          39.000    24091913.916    98652359.9891        992.053          38.000  
G18  23235742.355   122104649.8312      -2842.902          43.000    23235742.207    95146477.232       -2215.247          40.000  
G10  23592617.505   123980047.9362       2618.747          46.000    23592616.246    96607814.112        2038.944          32.000  
S28  38658292.607   203150698.0832        -96.283          39.000  
G28  24672909.945   129657015.8872       2803.182          42.000    24672909.627   101031445.646        2183.667          44.000  
S37  37836823.320   198833848.1442        -98.559          38.000  
C32  24965924.023   130004112.4012       1290.039          45.000                                                                  
C39  37312277.751   194294822.641        -134.482          42.000                                                                  
E29  25935901.462   136294105.696        -853.113          42.000    25935903.125   104433138.819        -653.879          44.000  
E26  26764337.081   140647556.515       -2840.766          39.000                                                                  
E27  27740388.564                         877.860          30.000    27740392.337   111699068.837         672.259          30.000  
J02  38506209.112   202351511.4822        -70.279          44.000                                                                  
G24                                                                  23319961.156    95491351.277       -2449.279          29.000  
> 2025 10 27 02 10 24.0040000  0 28                     
S29  38241465.970   200960259.7712        -99.683          39.000  
J03  37325498.917   196146817.510        -245.168          43.000    37325501.380   152841676.336        -191.174          45.000  
J07  37836846.495   198833973.3842        -99.637          40.000    37836842.433   154935543.129         -77.346          40.000  
G25  23606271.541   124051788.1822       2590.718          42.000    23606275.833    96663739.530        2018.522          36.000  
G23  21512203.734   113047383.792         480.051          44.000    21512198.947    88088895.306         373.826          44.000  
G24  23320562.938   122550384.5863      -3145.142          31.000    23320558.617    95493800.908       -2450.326          28.000  
C13  37967678.525   197707671.612         791.498          40.000    37967671.322   152880083.8512        612.168          40.000  
C16  37849165.692   197090536.536          22.407          42.000    37849155.908   152402866.2342         17.312          42.000  
C23  23466612.584   122196816.574         642.499          42.000                                                                  
C09  38604535.429   201023956.521         365.654          41.000    38604526.461   155444419.763         282.902          44.000  
C38  37350303.763   194492841.096         381.509          46.000                                                                  
C06  37443599.281   194978639.873         217.608          41.000    37443587.813   150769806.303         168.418          43.000  
R09  21145310.711   112914792.671        1467.821          47.000    21145309.929    87822610.134        1141.450          39.000  
R21  23808546.629   127404340.030       -3678.382          44.000    23808551.840    99092287.4933      -2860.766          31.000  
R10  23480721.667   125165500.152        4027.755          36.000                                                                  
R22  22951701.858   122517749.0382       -730.889          37.000                                                                  
G12  24091668.293   126602558.3092       1271.476          44.000    24091668.262    98651368.888         991.063          37.000  
G18  23236283.407   122107493.2162      -2844.230          42.000    23236282.318    95148692.863       -2216.297          42.000  
G10  23592117.681   123977429.0562       2618.303          46.000    23592117.510    96605773.358        2040.267          40.000  
S28  38658310.899   203150793.9672        -96.531          39.000  
G28  24672375.600   129654213.7172       2801.289          43.000    24672374.956   101029262.248        2182.488          40.000  
S37  37836842.252   198833947.6102        -99.848          43.000  
C32  24965675.533   130002822.2312       1289.642          45.000                                                                  
C39  37312303.526   194294957.099        -135.116          43.000                                                                  
E29  25936068.148   136294958.799        -853.278          40.000    25936065.925   104433792.377        -654.046          43.000  
E26  26764874.288   140650396.877       -2840.938          40.000                                                                  
E27  27740217.169   145775824.1791        878.055          37.000    27740224.371   111698395.834         672.979          35.000  
J02  38506222.942   202351582.1432        -70.971          40.000                                                                  
> 2025 10 27 02 10 25.0040000  0 30                     
S29  38241484.997   200960359.678         -99.988          42.000  
J03  37325545.644   196147062.744        -245.394          43.000    37325550.298   152841867.545        -191.195          43.000  
J07  37836865.396   198834072.7691       -100.541          38.000    37836861.291   154935620.935         -77.889          42.000  
G25  23605776.250   124049197.763        2589.694          41.000    23605778.210    96661720.922        2018.352          40.000  
G23  21512112.366   113046904.115         479.363          45.000    21512107.823    88088521.517         373.787          46.000  
G24  23321161.074   122553528.5243      -3144.479          31.000    23321154.110    95496250.742       -2449.643          27.000  
C13  37967526.553   197706879.936         791.732          41.000    37967518.233   152879471.6582        612.052          41.000  
C16  37849161.276   197090514.278          21.820          44.000    37849151.328   152402848.9802         17.025          41.000  
C23  23466489.252   122196174.751         641.344          47.000    23466465.662                         544.000          11.000  
C09  38604465.351   201023590.968         365.941          42.000    38604456.231   155444137.032         282.531          40.000  
C38  37350230.532   194492459.514         381.459          45.000                                                                  
C06  37443557.599   194978422.373         217.067          40.000    37443545.998   150769638.097         168.245          42.000  
R09  21145036.578   112913325.609        1466.768          50.000    21145035.266    87821469.027        1140.422          41.000  
R21  23809234.108   127408018.776       -3678.690          45.000    23809238.869    99095146.6792      -2861.175          36.000  
R10  23479964.701   125161472.703        4027.649          37.000                                                                  
R22  22951846.637   122518515.9453       -731.027          41.000    22951829.562    95292107.3552       -568.713          31.000  
G12  24091424.452   126601286.3861       1271.266          43.000    24091425.292    98650378.169         990.213          38.000  
G18  23236824.548   122110337.0351      -2844.666          43.000    23236820.928    95150909.151       -2216.385          40.000  
G10  23591620.585   123974810.0771       2618.723          45.000    23591618.362    96603732.963        2040.677          35.000  
S28  38658329.216   203150890.543         -96.557          40.000  
G28  24671843.410   129651412.898        2800.329          39.000    24671842.480   101027079.704        2182.293          34.000  
S37  37836861.335   198834047.4512        -99.771          42.000  
C32  24965427.579   130001532.3522       1290.009          44.000                                                                  
C39  37312329.377   194295092.099        -134.811          45.000                                                                  
G32  24409156.072   128270980.0022        978.050          44.000                                                                  
E29  25936229.852   136295812.031        -853.349          42.000    25936228.366   104434446.109        -653.474          42.000  
E26  26765417.811   140653237.949       -2841.551          44.000                                                                  
E12  27785211.197                        1741.287          23.000    27785201.645                        1336.102          23.000  
E27  27740055.769   145774946.362         877.860          41.000    27740057.702   111697723.210         672.253          41.000  
J02  38506235.941   202351652.7482        -70.831          44.000                                                                  
> 2025 10 27 02 10 26.0040000  0 31                     
S29  38241503.948   200960459.506        -100.452          41.000  
J03  37325592.451   196147308.372        -245.694          41.000    37325598.369   152842058.913        -191.384          43.000  
J07  37836884.547   198834172.737        -100.477          40.000    37836880.152   154935698.817         -78.140          41.000  
G25  23605287.989   124046607.787        2589.724          44.000    23605284.146    96659702.819        2017.009          38.000  
G23  21512021.133   113046424.797         478.553          45.000    21512016.643    88088147.999         373.245          45.000  
G24  23321759.138   122556672.4952      -3145.143          31.000    23321753.940    95498700.523       -2449.936          27.000  
C13  37967374.428   197706087.969         791.382          42.000    37967365.848   152878859.2692        611.714          39.000  
C16  37849157.140   197090492.088          21.490          43.000    37849148.432   152402831.8262         17.155          43.000  
C23  23466366.225   122195533.582         640.444          46.000    23466331.097                         544.000          10.000  
C09  38604395.115   201023225.507         365.327          39.000    38604386.040   155443854.468         282.065          41.000  
C38  37350156.996   194492077.899         381.273          47.000                                                                  
C06  37443515.965   194978205.014         216.552          40.000    37443504.240   150769470.019         167.466          43.000  
R09  21144762.483   112911859.423        1465.358          48.000    21144760.699    87820328.702        1139.987          46.000  
R21  23809921.699   127411697.756       -3679.684          44.000    23809924.767    99098008.0982      -2860.996          36.000  
R10  23479209.623   125157445.715        4028.225          33.000                                                                  
R22  22951969.969   122519247.1872       -731.785          42.000    22951961.789    95292675.9662       -569.576          34.000  
G12  24091182.853   126600015.528        1270.537          44.000    24091183.481    98649387.936         990.303          38.000  
G18  23237365.713   122113181.769       -2845.126          44.000    23237361.587    95153125.833       -2216.002          40.000  
G10  23591121.201   123972191.234        2618.726          42.000    23591116.864    96601692.301        2040.693          35.000  
S28  38658347.590   203150986.937         -98.222          41.000  
G28  24671310.612   129648612.281        2800.979          38.000    24671309.825   101024897.469        2180.484          30.000  
S37  37836880.367   198834147.444         -99.946          43.000  
C32  24965180.624   130000241.8942       1290.515          43.000                                                                  
C39  37312355.338   194295227.168        -135.676          43.000                                                                  
G32  24408965.424   128270001.3832        976.812          34.000                                                                  
E29  25936392.746   136296664.816        -853.078          41.000    25936389.573   104435099.590        -653.588          41.000  
E26  26765960.224   140656079.432       -2841.300          41.000                                                                  
E27  27739887.980   145774068.979         876.872          42.000    27739891.400   111697050.893         672.040          41.000  
J02  38506249.543   202351723.3791        -71.684          40.000                                                                  
E12                                                                  27784870.372                        1335.389          23.000  
R16                                                                  22956392.846    95378055.8643      -1855.447          29.000  
> 2025 10 27 02 10 27.0040000  0 32                     
S29  38241522.993   200960559.626         -99.420          40.000  
J03  37325639.170   196147554.282        -245.660          35.000    37325643.910   152842250.547        -191.469          37.000  
J07  37836903.554   198834272.935         -99.285          39.000    37836899.225   154935776.985         -77.608          41.000  
G25  23604795.996   124044018.402        2589.586          41.000    23604791.568    96657684.950        2018.603          38.000  
G23  21511930.090   113045946.366         479.242          46.000    21511925.564    88087775.211         373.396          44.000  
C13  37967222.369   197705296.628         792.438          40.000    37967214.623   152878247.385         612.425          39.000  
C16  37849153.140   197090470.405          22.894          43.000    37849144.243   152402815.069          17.313          43.000  
C23  23466243.361   122194893.208         640.987          47.000                                                                  
C09  38604325.120   201022860.493         366.150          37.000    38604315.890   155443572.127         282.889          40.000  
C38  37350083.895   194491696.766         382.068          46.000                                                                  
C06  37443474.467   194977988.091         217.710          41.000    37443462.606   150769302.247         168.460          42.000  
R09  21144488.417   112910394.344        1465.850          49.000    21144486.359    87819189.128        1140.033          44.000  
R21  23810609.227   127415377.138       -3677.736          40.000    23810613.556    99100869.5251      -2860.831          31.000  
R10  23478454.386   125153419.213        4026.855          36.000                                                                  
R22  22952096.823   122519979.780        -731.812          43.000    22952098.194    95293245.2661       -568.745          39.000  
R07  22982581.521   123027588.9332       1129.369          45.000                                                                  
G12  24090941.700   126598745.359        1271.347          45.000    24090939.334    98648398.196         990.467          38.000  
G18  23237907.002   122116027.112       -2844.492          42.000    23237902.955    95155342.973       -2216.574          39.000  
G10  23590622.466   123969573.144        2618.915          44.000    23590620.185    96599652.281        2041.068          36.000  
S28  38658365.946   203151083.546         -96.290          41.000  
G28  24670777.937   129645812.284        2801.220          36.000    24670777.347   101022708.5991       2182.512          34.000  
S37  37836899.546   198834247.670         -99.603          42.000  
C32  24964932.977   129998951.5771       1291.064          45.000                                                                  
C39  37312381.302   194295362.785        -134.773          44.000                                                                  
G32  24408779.644   128269023.2152        979.310          40.000                                                                  
E29  25936554.745   136297518.191        -851.931          40.000    25936553.516   104435753.472        -653.301          43.000  
E26  26766501.313   140658921.390       -2840.655          42.000                                                                  
E27  27739717.953   145773192.270         876.875          34.000    27739724.038   111696379.216         671.948          40.000  
J02  38506263.209   202351794.695         -70.249          41.000                                                                  
E12                                                                  27784539.599                        1335.632          23.000  
R23                                                                  24827186.047                        1627.000          11.000  
G24                                                                  23322361.208    95501150.875       -2450.154          27.000  
> 2025 10 27 02 10 28.0040000  0 32                     
S29  38241542.071   200960659.667         -99.780          40.000  
J03  37325685.921   196147800.025        -244.827          41.000    37325689.793   152842441.985        -190.448          41.000  
J07  37836922.596   198834373.050         -99.432          42.000    37836918.163   154935854.936         -77.315          41.000  
G25  23604301.176   124041428.691        2589.195          42.000    23604299.031    96655667.081        2018.239          36.000  
G23  21511839.084   113045468.563         477.864          46.000    21511834.632    88087402.940         372.380          44.000  
G24  23322958.872   122562975.3463      -3145.291          36.000    23322959.159    95503601.741       -2451.333          28.000  
C13  37967070.291   197704505.565         791.253          41.000    37967061.853   152877635.712         611.446          38.000  
C16  37849149.117   197090448.914          21.464          41.000    37849139.634   152402798.404          16.783          42.000  
C23  23466120.399   122194253.374         639.909          45.000                                                                  
C09  38604255.107   201022495.467         364.986          37.000    38604245.812   155443289.873         281.705          39.000  
C38  37350010.821   194491315.913         381.083          44.000                                                                  
C06  37443433.022   194977771.264         216.964          41.000    37443420.938   150769134.547         167.966          42.000  
R09  21144214.413   112908929.955        1464.013          47.000    21144212.129    87818050.217        1138.920          43.000  
R21  23811296.699   127419056.279       -3677.915          43.000    23811299.619    99103730.876       -2860.742          35.000  
R10  23477698.916   125149392.381        4027.184          37.000                                                                  
R22  22952243.608   122520713.387        -733.460          41.000    22952240.487    95293815.753        -570.091          30.000  
R07  22982370.747   123026461.2142       1127.102          37.000                                                                  
G12  24090700.447   126597475.571        1270.191          37.000    24090696.215    98647408.739         989.798          28.000  
G18  23238448.267   122118872.488       -2845.538          45.000    23238444.465    95157560.218       -2217.830          37.000  
G10  23590124.430   123966955.460        2617.152          42.000    23590122.291    96597612.648        2038.840          33.000  
S28  38658384.292   203151180.078         -95.397          41.000  
G28  24670245.209   129643012.180        2801.288          38.000    24670244.946   101020526.756        2180.970          35.000  
S37  37836918.543   198834347.755         -99.162          45.000  
C32  24964685.277   129997662.006        1289.886          40.000                                                                  
C39  37312407.450   194295498.494        -135.253          44.000                                                                  
G32  24408595.907   128268045.2692        978.071          42.000                                                                  
E29  25936717.091   136298371.828        -853.801          41.000    25936715.292   104436407.628        -654.108          43.000  
E26  26767042.445   140661763.098       -2841.699          41.000                                                                  
E27  27739551.705   145772315.871         875.307          31.000    27739556.938   111695707.645         671.938          27.000  
J02  38506276.934   202351865.875         -68.938          38.000                                                                  
E12                                                                  27784205.197                        1333.493          24.000  
R23                                                                  24826809.704                        1497.325          13.000  
> 2025 10 27 02 10 29.0040000  0 32                     
S29  38241560.852   200960758.292         -99.176          42.000  
J03  37325732.365   196148043.896        -244.436          43.000    37325735.512   152842631.930        -190.476          38.000  
J07  37836941.455   198834471.782         -99.748          40.000    37836937.060   154935931.898         -77.743          42.000  
G25  23603808.084   124038837.672        2590.238          41.000    23603806.238    96653648.112        2017.618          39.000  
G23  21511748.115   113044990.917         476.616          45.000    21511743.720    88087030.743         371.369          44.000  
G24  23323555.927   122566113.4063      -3148.063          31.000    23323557.065    95506053.303       -2451.890          29.000  
C13  37966918.379   197703714.622         789.854          39.000    37966910.235   152877024.068         611.406          37.000  
C16  37849144.639   197090426.450          21.789          44.000    37849135.290   152402781.098          16.812          41.000  
C23  23465997.426   122193612.950         639.429          45.000                                                                  
C09  38604184.818   201022128.849         366.685          39.000    38604175.230   155443006.344         282.567          39.000  
C38  37349937.443   194490934.648         380.445          47.000                                                                  
C06  37443391.135   194977553.322         217.723          40.000    37443379.111   150768966.051         167.924          41.000  
R09  21143940.280   112907465.267        1463.427          48.000    21143937.866    87816911.013        1138.041          42.000  
R21  23811983.966   127422733.714       -3676.496          42.000    23811987.104    99106591.084       -2861.061          42.000  
R10  23476942.957   125145363.760        4028.268          37.000                                                                  
R22  22952380.686   122521447.905        -735.269          43.000                                                                  
R07  22982160.265   123025333.5381       1126.437          41.000                                                                  
G12  24090459.703   126596205.482        1269.002          42.000    24090455.056    98646419.006         989.317          33.000  
G18  23238989.387   122121716.448       -2845.591          43.000    23238985.700    95159776.188       -2216.170          41.000  
G10  23589626.411   123964338.310        2616.828          43.000    23589624.668    96595573.145        2039.061          36.000  
S28  38658402.383   203151275.180         -95.685          39.000  
G28  24669712.161   129640210.901        2800.439          42.000    24669711.999   101018343.875        2182.361          39.000  
S37  37836937.344   198834446.500         -99.378          43.000  
C32  24964437.542   129996372.888        1288.580          42.000                                                                  
C39  37312433.348   194295633.614        -135.901          44.000                                                                  
G32  24408410.787   128267067.3292        977.297          41.000                                                                  
E29  25936879.445   136299225.920        -854.538          41.000    25936877.704   104437061.911        -654.826          42.000  
E26  26767582.316   140664602.960       -2841.049          40.000    26767582.979   107781963.801       -2176.549          43.000  
E27  27739387.210   145771439.492         875.235          37.000    27739390.492   111695036.155         670.358          39.000  
J02  38506290.186   202351935.311         -70.211          41.000                                                                  
E12                                                                  27783872.977                        1334.833          23.000  
R23                                                                  24826451.054                        1497.325          13.000  
> 2025 10 27 02 10 30.0040000  0 31                     
S29  38241580.043   200960858.900        -100.629          40.000  
J03  37325779.202   196148289.796        -245.320          40.000    37325781.652   152842823.545        -191.479          42.000  
J07  37836960.645   198834572.464        -101.199          40.000    37836956.246   154936010.414         -78.395          41.000  
G25  23603315.413   124036248.599        2588.566          44.000    23603313.839    96651630.693        2017.136          36.000  
G23  21511657.714   113044515.821         474.866          45.000    21511653.354    88086660.543         370.163          43.000  
G24  23324155.042   122569261.6572      -3148.797          32.000    23324156.372    95508506.428       -2453.413          29.000  
C13  37966766.768   197702925.691         789.682          39.000    37966758.886   152876414.072         610.072          37.000  
C16  37849140.736   197090406.175          19.854          44.000    37849131.476   152402765.396          15.886          42.000  
C23  23465874.967   122192975.113         638.096          45.000                                                                  
C09  38604114.783   201021764.631         363.990          41.000    38604105.265   155442724.679         281.655          41.000  
C38  37349864.640   194490555.583         379.110          46.000                                                                  
C06  37443349.601   194977337.613         215.103          41.000    37443337.676   150768799.221         166.612          42.000  
R09  21143666.650   112906003.290        1462.116          45.000    21143664.087    87815773.917        1136.874          42.000  
R21  23812671.583   127426413.028       -3680.484          44.000    23812674.170    99109452.776       -2862.219          35.000  
R10  23476187.548   125141337.181        4027.187          39.000                                                                  
R22  22952518.648   122522185.403        -738.402          35.000    22952521.132    95294979.5083       -571.882          29.000  
R07  22981950.086   123024208.443        1125.557          41.000                                                                  
G12  24090218.145   126594937.472        1268.119          39.000    24090213.956    98645430.929         987.801          26.000  
G18  23239530.925   122124562.530       -2846.090          40.000    23239527.406    95161993.986       -2218.360          42.000  
G10  23589128.983   123961723.397        2614.712          46.000    23589127.230    96593535.624        2037.730          39.000  
S28  38658420.841   203151372.353         -97.601          42.000  
G28  24669179.483   129637411.797        2798.708          41.000    24669179.313   101016162.734        2180.945          41.000  
S37  37836956.548   198834547.183        -101.063          43.000  
C32  24964190.088   129995085.809        1286.926          45.000                                                                  
C39  37312459.750   194295770.912        -137.137          44.000                                                                  
G32  24408226.241   128266091.5692        976.087          34.000                                                                  
E29  25937042.374   136300081.933        -856.233          42.000    25937040.517   104437717.861        -656.026          43.000  
E26  26768123.097   140667444.873       -2842.960          40.000    26768124.464   107784141.351       -2177.902          44.000  
E27  27739222.503   145770564.826         877.793          26.000    27739224.287   111694365.965         671.320          32.000  
J02  38506303.710   202352006.613         -70.524          41.000                                                                  
R23                                                                  24826091.754                        1497.325          11.000  
> 2025 10 27 02 10 31.0040000  0 31                     
S29  38241599.106   200960959.134        -100.861          41.000  
J03  37325825.982   196148535.427        -245.956          41.000    37325828.029   152843014.973        -191.567          44.000  
J07  37836979.636   198834672.563         -99.442          36.000    37836975.319   154936088.388         -78.031          43.000  
G25  23602822.687   124033659.370        2589.619          41.000    23602821.203    96649613.091        2017.220          37.000  
G23  21511567.175   113044040.149         475.134          45.000    21511562.804    88086289.870         370.514          43.000  
G24  23324755.839   122572418.8582      -3148.293          34.000    23324755.201    95510958.731       -2452.954          29.000  
C13  37966615.137   197702135.826         789.755          39.000    37966607.431   152875803.174         610.886          39.000  
C16  37849136.891   197090385.429          20.095          43.000    37849127.603   152402749.361          16.061          40.000  
C23  23465752.318   122192337.017         637.830          46.000                                                                  
C09  38604044.728   201021399.934         364.215          37.000    38604035.264   155442442.834         280.868          37.000  
C38  37349791.573   194490175.542         380.000          43.000                                                                  
C06  37443307.893   194977121.537         214.985          39.000    37443296.123   150768632.091         167.003          41.000  
R09  21143393.070   112904541.338        1461.589          48.000    21143390.309    87814636.838        1136.458          40.000  
R21  23813359.158   127430092.324       -3679.150          41.000    23813361.659    99112314.479       -2862.081          36.000  
R10  23475432.217   125137310.703        4026.088          40.000                                                                  
R22  22952656.538   122522921.8622       -734.378          30.000    22952657.436    95295552.6172       -573.414          28.000  
R07  22981739.693   123023082.154        1127.811          40.000                                                                  
G12  24089976.753   126593669.159        1268.368          44.000    24089972.884    98644442.717         988.031          35.000  
G18  23240072.454   122127408.890       -2847.058          43.000    23240069.282    95164211.875       -2218.548          40.000  
G10  23588631.306   123959107.572        2616.285          42.000    23588629.514    96591497.333        2038.323          39.000  
S28  38658439.256   203151469.301         -97.289          42.000  
G28  24668646.889   129634612.715        2798.582          41.000    24668646.725   101013981.739        2180.784          38.000  
S37  37836975.639   198834647.335        -100.340          39.000  
C32  24963942.400   129993797.658        1287.988          42.000                                                                  
C39  37312486.121   194295907.647        -137.994          41.000                                                                  
G32  24408040.452   128265114.6081        976.506          43.000                                                                  
E29  25937205.259   136300936.628        -854.392          42.000    25937203.161   104438372.804        -655.367          39.000  
E26  26768664.461   140670286.788       -2843.403          40.000    26768664.435   107786318.883       -2177.895          43.000  
E12  27783220.530                        1739.649          25.000    27783210.954                        1332.471          31.000  
E27  27739055.260   145769689.515         875.210          39.000    27739057.574   111693695.300         670.854          38.000  
J02  38506317.212   202352077.293         -71.312          37.000                                                                  
> 2025 10 27 02 10 32.0040000  0 31                     
S29  38241618.246   200961060.117        -103.290          41.000  
J03  37325872.800   196148780.916        -246.305          41.000    37325874.534   152843206.274        -193.348          43.000  
J07  37836998.710   198834772.371        -101.062          38.000    37836994.409   154936166.086         -78.799          45.000  
G25  23602329.875   124031069.618        2588.586          36.000    23602328.694    96647595.160        2016.211          38.000  
G23  21511476.693   113043564.948         473.638          46.000    21511472.306    88085919.593         369.316          45.000  
G24  23325352.038                       -3150.108          28.000    23325354.015    95513411.257       -2453.315          30.000  
C13  37966463.603   197701346.343         787.357          43.000    37966456.074   152875192.677         609.430          43.000  
C16  37849133.139   197090365.150          18.538          41.000    37849123.872   152402733.632          14.419          44.000  
C23  23465629.723   122191699.048         636.387          45.000                                                                  
C09  38603974.784   201021035.957         362.662          39.000    38603965.318   155442161.333         279.694          38.000  
C38  37349718.321   194489795.462         379.159          44.000                                                                  
C06  37443266.444   194976905.950         213.193          39.000    37443254.711   150768465.353         165.377          42.000  
R09  21143119.356   112903079.724        1459.381          44.000    21143116.550    87813499.998        1135.634          40.000  
R21  23814046.829   127433772.079       -3681.219          37.000    23814049.357    99115176.530       -2861.435          33.000  
R10  23474676.827   125133284.162        4025.953          37.000                                                                  
R16  22959112.042   122643454.7253      -2394.965          28.000                                                                  
R22  22952794.458   122523660.7182       -740.549          44.000    22952794.279    95296126.9352       -576.564          38.000  
R07  22981529.324   123021956.479        1124.510          42.000                                                                  
G12  24089735.319   126592400.323        1267.702          40.000    24089731.574    98643454.029         988.295          42.000  
G18  23240614.157   122130255.839       -2849.442          43.000    23240611.184    95166430.367       -2220.844          39.000  
G10  23588133.793   123956492.750        2613.543          42.000    23588132.054    96589459.702        2036.265          41.000  
S28  38658457.888   203151567.113        -100.125          39.000  
G28  24668114.549   129631815.086        2793.455          32.000    24668115.593                        2178.906          30.000  
S37  37836994.607   198834747.093        -101.150          42.000  
C32  24963695.164   129992510.277        1285.638          43.000                                                                  
C39  37312512.438   194296044.749        -138.349          43.000                                                                  
G32  24407854.883   128264139.379         972.264          36.000                                                                  
E29  25937367.571   136301791.625        -857.113          44.000    25937366.311   104439027.864        -656.649          45.000  
E26  26769205.057   140673128.647       -2844.123          43.000    26769205.739   107788496.386       -2178.690          41.000  
E27  27738887.918   145768813.767         874.709          40.000    27738891.122   111693024.199         670.593          43.000  
J02  38506330.450   202352147.266         -69.971          38.000                                                                  
> 2025 10 27 02 10 33.0040000  0 31                     
S29  38241638.112   200961164.0163       -117.242          42.000  
J03  37325919.983                        -259.766          39.000    37325921.354   152843399.345        -203.645          39.000  
J07  37837018.210                1       -112.207          36.000    37837013.920   154936245.770         -89.482          40.000  
G25  23601837.475                        2579.785          40.000    23601836.593    96645579.155        2005.531          37.000  
G23  21511386.828   113043092.914         459.110          45.000    21511382.464    88085551.762         357.791          44.000  
G24  23325956.657                       -3157.784          29.000    23325953.009                       -2458.844          30.000  
C13  37966312.627   197700559.766         772.943          43.000    37966305.238   152874584.475         597.653          42.000  
C16  37849129.828   197090347.936           2.829          43.000    37849120.808   152402720.317           2.773          43.000  
C23  23465507.946   122191063.999         621.873          45.000                                                                  
C09  38603905.562   201020675.141         347.491          39.000    38603896.081   155441882.166         268.492          41.000  
C38  37349645.958   194489418.111         363.436          45.000                                                                  
C06  37443225.707   194976693.361         198.278          41.000    37443213.937   150768301.013         153.190          43.000  
R09  21142846.529   112901621.214        1444.405          46.000    21142843.518    87812365.567        1124.158          41.000  
R21  23814735.152                1      -3691.064          38.000    23814738.315    99118035.7423      -2866.910          32.000  
R10  23473921.965   125129260.356        4010.427          37.000                                                                  
R22  22952933.113                        -755.518          40.000    22952929.409                        -579.736          33.000  
R07  22981319.694   123020834.212        1107.619          44.000                                                                  
G12  24089494.330   126591133.940        1252.998          43.000    24089490.902    98642467.091         978.485          37.000  
G18  23241156.574   122133105.924       -2864.802          43.000    23241153.744    95168651.151       -2231.383          39.000  
G10  23587636.967   123953881.242        2597.669          41.000    23587635.199    96587424.815        2024.245          39.000  
S28  38658477.056                        -110.303          39.000  
G28  24667582.730                        2784.668          34.000    24667579.872                        2173.709          28.000  
S37  37837014.191   198834850.9023       -116.706          40.000  
C32  24963448.464   129991225.936        1271.979          41.000                                                                  
C39  37312539.570   194296184.957        -154.332          44.000                                                                  
G32  24407670.110   128263167.783         958.962          35.000                                                                  
E29  25937530.355                        -866.238          42.000    25937529.585   104439685.114        -667.480          44.000  
E26  26769746.413                       -2852.646          43.000    26769746.688   107790676.055       -2189.739          41.000  
E27  27738721.406                         862.698          40.000    27738724.760   111692355.035         657.899          43.000  
J02  38506344.271   202352219.273         -84.842          43.000                                                                  
E12                                                                  27782550.616                        1319.999          24.000  
> 2025 10 27 02 10 34.0040000  0 32                     
S29  38241657.632   200961266.5462       -103.174          42.000  
J03  37325966.897   196149279.7793       -248.650          42.000    37325967.651   152843590.136        -192.484          38.000  
J07  37837037.283   198834972.0813       -100.904          36.000    37837032.830   154936322.948         -78.899          40.000  
G25  23601344.640   124025903.1163       2588.112          42.000    23601343.817    96643560.675        2016.334          40.000  
G23  21511296.590   113042626.2953        474.183          45.000    21511292.074    88085144.5721        369.307          43.000  
G24  23326553.158   122581864.0053      -3147.516          28.000    23326553.928    95518338.3561      -2449.716          29.000  
C13  37966161.031   197699762.8863        788.282          44.000    37966153.656   152873973.623         610.168          43.000  
C16  37849125.952   197090330.8873         18.220          40.000    37849117.060   152402704.774          14.511          43.000  
C23  23465385.591   122190419.5503        636.063          45.000                                                                  
C09  38603835.902   201020303.8623        361.897          39.000    38603826.342   155441601.303         279.658          43.000  
C38  37349572.862   194489026.6733        379.660          45.000                                                                  
C06  37443184.608   194976487.2023        213.293          39.000    37443172.610   150768134.589         165.167          43.000  
R09  21142573.066   112900159.9433       1459.745          44.000    21142569.852    87811229.045        1134.850          41.000  
R21  23815423.193   127441139.6203      -3680.610          35.000                                                                  
R10  23473166.883                        4047.910          30.000                                                                  
R16  22960009.906                       -2396.702          25.000                                                                  
R22  22953071.924   122525056.6493       -744.965          36.000    22953069.602    95297256.3373       -577.902          29.000  
R07  22981109.493   123019677.8973       1124.670          49.000                                                                  
G12  24089252.801   126589877.5733       1267.558          42.000    24089249.388    98641477.657         988.929          37.000  
G18  23241698.620   122135950.2973      -2849.767          40.000    23241695.745    95170858.2621      -2221.159          35.000  
G10  23587139.808   123951256.1703       2613.302          46.000    23587137.640    96585387.521        2035.774          39.000  
S28  38658495.973   203151766.4993       -100.125          43.000  
G28  24667050.825   129626226.0083       2793.905          35.000    24667047.527                        2174.858          25.000  
S37  37837033.132   198834950.8322       -101.219          40.000  
C32  24963201.220   129989939.5253       1286.469          44.000                                                                  
C39  37312566.028   194296322.2203       -138.743          45.000                                                                  
G32  24407484.892   128262198.2083        973.627          38.000                                                                  
E29  25937693.354   136303497.5511       -855.495          43.000    25937691.962   104440336.5541       -655.085          44.000  
E26  26770287.249   140678808.1761      -2844.498          39.000    26770287.751   107792854.7241      -2178.952          39.000  
E12  27782226.015                        1736.281          26.000    27782220.301                        1331.305          25.000  
E27  27738554.745   145767089.0091        875.521          40.000    27738558.055   111691678.7461        671.326          42.000  
J02  38506357.577   202352274.2223        -69.969          40.000                                                                  
> 2025 10 27 02 10 35.0040000  0 31                     
S29  38241677.340   200961370.0152       -106.018          41.000  
J03  37326014.005   196149527.0092       -251.940          30.000    37326014.676   152843782.872        -194.266          33.000  
J07  37837056.471   198835072.5192       -103.234          36.000    37837052.142   154936401.248         -81.210          42.000  
G25  23600852.032   124023314.6612       2585.403          42.000    23600851.416    96641543.662        2015.393          37.000  
G23  21511206.387   113042152.0792        470.945          44.000    21511201.816    88084775.092         366.313          44.000  
G24  23327149.338                       -3148.070          27.000    23327154.071                       -2453.350          27.000  
C13  37966009.404   197698973.1622        786.291          44.000    37966002.136   152873362.992         608.092          43.000  
C16  37849122.224   197090312.3472         15.756          43.000    37849113.505   152402690.443          11.793          41.000  
C23  23465263.392   122189783.0832        633.268          45.000                                                                  
C09  38603766.489   201019942.7912        357.729          35.000    38603756.998   155441322.119         277.074          41.000  
C38  37349499.694   194488646.2662        377.357          45.000                                                                  
C06  37443143.740   194976273.7672        210.409          40.000    37443131.567   150767969.548         163.060          42.000  
R09  21142299.657   112898700.5282       1456.344          45.000    21142296.590    87810093.890        1132.821          39.000  
R21  23816111.394                       -3681.673          29.000    23816113.952                       -2869.098          27.000  
R10  23472418.951                        4020.521          27.000                                                                  
R22  22953211.415                        -743.289          30.000    22953208.082    95297834.4361       -580.693          30.000  
R07  22980899.043   123018551.9122       1123.365          46.000                                                                  
G12  24089011.355   126588608.6702       1265.341          43.000    24089007.972    98640488.888         986.317          36.000  
G18  23242241.079   122138800.7672      -2852.623          44.000    23242238.224    95173079.378       -2223.471          38.000  
G10  23586642.444   123948642.0092       2611.149          49.000    23586640.320    96583350.401        2034.298          41.000  
S28  38658515.019   203151867.1552       -103.602          40.000  
G28  24666519.298   129623432.8152       2790.578          35.000    24666517.824                        2173.108          31.000  
S37  37837052.285   198835051.2412       -103.026          38.000  
C32  24962953.791   129988652.2092       1284.839          47.000                                                                  
C39  37312592.633   194296460.6432       -141.693          44.000                                                                  
G32  24407299.684   128261225.0712        970.538          35.000                                                                  
E29  25937855.757   136304351.380        -856.827          42.000    25937854.516   104440990.840        -656.679          43.000  
E26  26770825.753   140681638.6851      -2847.673          34.000    26770828.901   107795034.176       -2181.684          37.000  
E12  27781895.162   145994844.4011       1733.333          33.000    27781889.509   111866155.7731       1327.936          27.000  
E27  27738387.630   145766212.361         873.355          41.000    27738391.146   111691006.984         669.192          43.000  
J02  38506370.915   202352344.1372        -72.677          37.000                                                                  
